à$GPTXT,01,01,02,MA=CASIC*27
$GPTXT,01,01,02,HW=ATGM336H,0000121908024*17
$GPTXT,01,01,02,IC=AT6558-5N-31-0C510800,AL22CLJ-A3-016611*5D
$GPTXT,01,01,02,SW=URANUS5,V5.3.0.0*1D
$GPTXT,01,01,02,TB=2020-04-28,13:43:10*40
$GPTXT,01,01,02,MO=GB*77
$GPTXT,01E
$GNZDA,,,,,,*56
$GPTXT,01,01,01,ANTENNA OPEN*25
$GNGGA,,,,,,0,00,25.5,,,,,,*64
$GNRMC,,V,,,,,,,,,,M*4E
$GNZDA,,,,,,*56
$GPTXT,01,01,01,ANTENNA OPEN*25
$GNGGA,,,,,,0,00,25.5,,,,,,*64
$GNRMC,,V,,,,,,,,,,M*4E
$GNZDA,,,,,,*56
$GPTXT,01,01,01,ANTENNA OPEN*25
$GNGGA,,,,,,0,00,25.5,,,,,,*64
$GNRMC,,V,,,,,,,,,,M*4E
$GNZDA,,,,,,*56
$GPTXT,01,01,01,ANTENNA OPEN*25
$GNGGA,,,,,,0,00,25.5,,,,,,*64
$GNRMC,,V,,,,,,,,,,M*4E
$GNZDA,,,,,,*56
$GPTXT,01,01,01,ANTENNA OPEN*25
$GNGGA,,,,,,0,00,25.5,,,,,,*64
$GNRMC,,V,,,,,,,,,,M*4E
$GNZDA,,,,,,*56
$GPTXT,01,01,01,ANTENNA OPEN*25
$GNGGA,,,,,,0,00,25.5,,,,,,*64
$GNRMC,,V,,,,,,,,,,M*4E
$GNZDA,,,,,,*56
$GPTXT,01,01,01,ANTENNA OPEN*25
$GNGGA,,,,,,0,00,25.5,,,,,,*64
$GNRMC,,V,,,,,,,,,,M*4E
$GNZDA,,,,,,*56
$GPTXT,01,01,01,ANTENNA OPEN*25
$GNGGA,,,,,,0,00,25.5,,,,,,*64
$GNRMC,,V,,,,,,,,,,M*4E
$GNZDA,,,,,,*56
$GPTXT,01,01,01,ANTENNA OPEN*25
$GNGGA,,,,,,0,00,25.5,,,,,,*64
$GNRMC,,V,,,,,,,,,,M*4E
$GNZDA,,,,,,*56
$GPTXT,01,01,01,ANTENNA OPEN*25
$GNGGA,,,,,,0,00,25.5,,,,,,*64
$GNRMC,,V,,,,,,,,,,M*4E
$GNZDA,,,,,,*56
$GPTXT,01,01,01,ANTENNA OPEN*25
$GNGGA,,,,,,0,00,25.5,,,,,,*64
$GNRMC,,V,,,,,,,,,,M*4E
$GNZDA,,,,,,*56
$GPTXT,01,01,01,ANTENNA OPEN*25
$GNGGA,,,,,,0,00,25.5,,,,,,*64
$GNRMC,,V,,,,,,,,,,M*4E
$GNZDA,,,,,,*56
$GPTXT,01,01,01,ANTENNA OPEN*25
$GNGGA,,,,,,0,00,25.5,,,,,,*64
$GNRMC,,V,,,,,,,,,,M*4E
$GNZDA,,,,,,*56
$GPTXT,01,01,01,ANTENNA OPEN*25
$GNGGA,,,,,,0,00,25.5,,,,,,*64
$GNRMC,,V,,,,,,,,,,M*4E
$GNZDA,,,,,,*56
$GPTXT,01,01,01,ANTENNA OPEN*25
$GNGGA,,,,,,0,00,25.5,,,,,,*64
$GNRMC,,V,,,,,,,,,,M*4E
$GNZDA,,,,,,*56
$GPTXT,01,01,01,ANTENNA OPEN*25
$GNGGA,,,,,,0,00,25.5,,,,,,*64
$GNRMC,,V,,,,,,,,,,M*4E
$GNZDA,,,,,,*56
$GPTXT,01,01,01,ANTENNA OPEN*25
$GNGGA,,,,,,0,00,25.5,,,,,,*64
$GNRMC,,V,,,,,,,,,,M*4E
$GNZDA,,,,,,*56
$GPTXT,01,01,01,ANTENNA OPEN*25
$GNGGA,,,,,,0,00,25.5,,,,,,*64
$GNRMC,,V,,,,,,,,,,M*4E
$GNZDA,,,,,,*56
$GPTXT,01,01,01,ANTENNA OPEN*25
$GNGGA,,,,,,0,00,25.5,,,,,,*64
$GNRMC,,V,,,,,,,,,,M*4E
$GNZDA,,,,,,*56
$GPTXT,01,01,01,ANTENNA OPEN*25
$GNGGA,,,,,,0,00,25.5,,,,,,*64
$GNRMC,,V,,,,,,,,,,M*4E
$GNZDA,,,,,,*56
$GPTXT,01,01,01,ANTENNA OPEN*25
$GNGGA,,,,,,0,00,25.5,,,,,,*64
$GNRMC,,V,,,,,,,,,,M*4E
$GNZDA,,,,,,*56
$GPTXT,01,01,01,ANTENNA OPEN*25
$GNGGA,,,,,,0,00,25.5,,,,,,*64
$GNRMC,,V,,,,,,,,,,M*4E
$GNZDA,,,,,,*56
$GPTXT,01,01,01,ANTENNA OPEN*25
$GNGGA,,,,,,0,00,25.5,,,,,,*64
$GNRMC,,V,,,,,,,,,,M*4E
$GNZDA,,,,,,*56
$GPTXT,01,01,01,ANTENNA OPEN*25
$GNGGA,,,,,,0,00,25.5,,,,,,*64
$GNRMC,,V,,,,,,,,,,M*4E
$GNZDA,,,,,,*56
$GPTXT,01,01,01,ANTENNA OPEN*25
$GNGGA,,,,,,0,00,25.5,,,,,,*64
$GNRMC,,V,,,,,,,,,,M*4E
$GNZDA,,,,,,*56
$GPTXT,01,01,01,ANTENNA OPEN*25
$GNGGA,,,,,,0,00,25.5,,,,,,*64
$GNRMC,,V,,,,,,,,,,M*4E
$GNZDA,,,,,,*56
$GPTXT,01,01,01,ANTENNA OPEN*25
$GNGGA,,,,,,0,00,25.5,,,,,,*64
$GNRMC,,V,,,,,,,,,,M*4E
$GNZDA,,,,,,*56
$GPTXT,01,01,01,ANTENNA OPEN*25
$GNGGA,,,,,,0,00,25.5,,,,,,*64
$GNRMC,,V,,,,,,,,,,M*4E
$GNZDA,,,,,,*56
$GPTXT,01,01,01,ANTENNA OPEN*25
$GNGGA,,,,,,0,00,25.5,,,,,,*64
$GNRMC,,V,,,,,,,,,,M*4E
$GNZDA,,,,,,*56
$GPTXT,01,01,01,ANTENNA OPEN*25
$GNGGA,,,,,,0,00,25.5,,,,,,*64
$GNRMC,,V,,,,,,,,,,M*4E
$GNZDA,,,,,,*56
$GPTXT,01,01,01,ANTENNA OPEN*25
$GNGGA,,,,,,0,00,25.5,,,,,,*64
$GNRMC,,V,,,,,,,,,,M*4E
$GNZDA,,,,,,*56
$GPTXT,01,01,01,ANTENNA OPEN*25
$GNGGA,,,,,,0,00,25.5,,,,,,*64
$GNRMC,,V,,,,,,,,,,M*4E
$GNZDA,,,,,,*56
$GPTXT,01,01,01,ANTENNA OPEN*25
$GNGGA,,,,,,0,00,25.5,,,,,,*64
$GNRMC,,V,,,,,,,,,,M*4E
$GNZDA,,,,,,*56
$GPTXT,01,01,01,ANTENNA OPEN*25
$GNGGA,,,,,,0,00,25.5,,,,,,*64
$GNRMC,,V,,,,,,,,,,M*4E
$GNZDA,,,,,,*56
$GPTXT,01,01,01,ANTENNA OPEN*25
$GNGGA,,,,,,0,00,25.5,,,,,,*64
$GNRMC,,V,,,,,,,,,,M*4E
$GNZDA,,,,,,*56
$GPTXT,01,01,01,ANTENNA OPEN*25
$GNGGA,,,,,,0,00,25.5,,,,,,*64
$GNRMC,,V,,,,,,,,,,M*4E
$GNZDA,,,,,,*56
$GPTXT,01,01,01,ANTENNA OPEN*25
$GNGGA,,,,,,0,00,25.5,,,,,,*64
$GNRMC,,V,,,,,,,,,,M*4E
$GNZDA,,,,,,*56
$GPTXT,01,01,01,ANTENNA OPEN*25
$GNGGA,,,,,,0,00,25.5,,,,,,*64
$GNRMC,,V,,,,,,,,,,M*4E
$GNZDA,,,,,,*56
$GPTXT,01,01,01,ANTENNA OPEN*25
$GNGGA,,,,,,0,00,25.5,,,,,,*64
$GNRMC,,V,,,,,,,,,,M*4E
$GNZDA,,,,,,*56
$GPTXT,01,01,01,ANTENNA OPEN*25
$GNGGA,,,,,,0,00,25.5,,,,,,*64
$GNRMC,,V,,,,,,,,,,M*4E
$GNZDA,,,,,,*56
$GPTXT,01,01,01,ANTENNA OPEN*25
$GNGGA,,,,,,0,00,25.5,,,,,,*64
$GNRMC,,V,,,,,,,,,,M*4E
$GNZDA,,,,,,*56
$GPTXT,01,01,01,ANTENNA OPEN*25
$GNGGA,,,,,,0,00,25.5,,,,,,*64
$GNRMC,,V,,,,,,,,,,M*4E
$GNZDA,,,,,,*56
$GPTXT,01,01,01,ANTENNA OPEN*25
$GNGGA,,,,,,0,00,25.5,,,,,,*64
$GNRMC,,V,,,,,,,,,,M*4E
$GNZDA,,,,,,*56
$GPTXT,01,01,01,ANTENNA OPEN*25
$GNGGA,,,,,,0,00,25.5,,,,,,*64
$GNRMC,,V,,,,,,,,,,M*4E
$GNZDA,,,,,,*56
$GPTXT,01,01,01,ANTENNA OPEN*25
$GNGGA,,,,,,0,00,25.5,,,,,,*64
$GNRMC,,V,,,,,,,,,,M*4E
$GNZDA,,,,,,*56
$GPTXT,01,01,01,ANTENNA OPEN*25
$GNGGA,,,,,,0,00,25.5,,,,,,*64
$GNRMC,,V,,,,,,,,,,M*4E
$GNZDA,,,,,,*56
$GPTXT,01,01,01,ANTENNA OPEN*25
$GNGGA,,,,,,0,00,25.5,,,,,,*64
$GNRMC,,V,,,,,,,,,,M*4E
$GNZDA,,,,,,*56
$GPTXT,01,01,01,ANTENNA OPEN*25
$GNGGA,,,,,,0,00,25.5,,,,,,*64
$GNRMC,,V,,,,,,,,,,M*4E
$GNZDA,,,,,,*56
$GPTXT,01,01,01,ANTENNA OPEN*25
$GNGGA,,,,,,0,00,25.5,,,,,,*64
$GNRMC,,V,,,,,,,,,,M*4E
$GNZDA,,,,,,*56
$GPTXT,01,01,01,ANTENNA OPEN*25
$GNGGA,,,,,,0,00,25.5,,,,,,*64
$GNRMC,,V,,,,,,,,,,M*4E
$GNZDA,,,,,,*56
$GPTXT,01,01,01,ANTENNA OPEN*25
$GNGGA,,,,,,0,00,25.5,,,,,,*64
$GNRMC,,V,,,,,,,,,,M*4E
$GNZDA,,,,,,*56
$GPTXT,01,01,01,ANTENNA OPEN*25
$GNGGA,,,,,,0,00,25.5,,,,,,*64
$GNRMC,,V,,,,,,,,,,M*4E
$GNZDA,,,,,,*56
$GPTXT,01,01,01,ANTENNA OPEN*25
$GNGGA,,,,,,0,00,25.5,,,,,,*64
$GNRMC,,V,,,,,,,,,,M*4E
$GNZDA,,,,,,*56
$GPTXT,01,01,01,ANTENNA OPEN*25
$GNGGA,,,,,,0,00,25.5,,,,,,*64
$GNRMC,,V,,,,,,,,,,M*4E
$GNZDA,,,,,,*56
$GPTXT,01,01,01,ANTENNA OPEN*25
$GNGGA,,,,,,0,00,25.5,,,,,,*64
$GNRMC,,V,,,,,,,,,,M*4E
$GNZDA,,,,,,*56
$GPTXT,01,01,01,ANTENNA OPEN*25
$GNGGA,,,,,,0,00,25.5,,,,,,*64
$GNRMC,,V,,,,,,,,,,M*4E
$GNZDA,,,,,,*56
$GPTXT,01,01,01,ANTENNA OPEN*25
$GNGGA,,,,,,0,00,25.5,,,,,,*64
$GNRMC,,V,,,,,,,,,,M*4E
$GNZDA,,,,,,*56
$GPTXT,01,01,01,ANTENNA OPEN*25
$GNGGA,,,,,,0,00,25.5,,,,,,*64
$GNRMC,,V,,,,,,,,,,M*4E
$GNZDA,,,,,,*56
$GPTXT,01,01,01,ANTENNA OPEN*25
$GNGGA,,,,,,0,00,25.5,,,,,,*64
$GNRMC,,V,,,,,,,,,,M*4E
$GNZDA,,,,,,*56
$GPTXT,01,01,01,ANTENNA OPEN*25
$GNGGA,,,,,,0,00,25.5,,,,,,*64
$GNRMC,,V,,,,,,,,,,M*4E
$GNZDA,,,,,,*56
$GPTXT,01,01,01,ANTENNA OPEN*25
$GNGGA,,,,,,0,00,25.5,,,,,,*64
$GNRMC,,V,,,,,,,,,,M*4E
$GNZDA,,,,,,*56
$GPTXT,01,01,01,ANTENNA OPEN*25
$GNGGA,,,,,,0,00,25.5,,,,,,*64
$GNRMC,,V,,,,,,,,,,M*4E
$GNZDA,,,,,,*56
$GPTXT,01,01,01,ANTENNA OPEN*25
$GNGGA,,,,,,0,00,25.5,,,,,,*64
$GNRMC,,V,,,,,,,,,,M*4E
$GNZDA,,,,,,*56
$GPTXT,01,01,01,ANTENNA OPEN*25
$GNGGA,,,,,,0,00,25.5,,,,,,*64
$GNRMC,,V,,,,,,,,,,M*4E
$GNZDA,,,,,,*56
$GPTXT,01,01,01,ANTENNA OPEN*25
$GNGGA,,,,,,0,00,25.5,,,,,,*64
$GNRMC,,V,,,,,,,,,,M*4E
$GNZDA,,,,,,*56
$GPTXT,01,01,01,ANTENNA OPEN*25
$GNGGA,,,,,,0,00,25.5,,,,,,*64
$GNRMC,,V,,,,,,,,,,M*4E
$GNZDA,,,,,,*56
$GPTXT,01,01,01,ANTENNA OPEN*25
$GNGGA,,,,,,0,00,25.5,,,,,,*64
$GNRMC,,V,,,,,,,,,,M*4E
$GNZDA,,,,,,*56
$GPTXT,01,01,01,ANTENNA OPEN*25
$GNGGA,,,,,,0,00,25.5,,,,,,*64
$GNRMC,,V,,,,,,,,,,M*4E
$GNZDA,,,,,,*56
$GPTXT,01,01,01,ANTENNA OPEN*25
$GNGGA,,,,,,0,00,25.5,,,,,,*64
$GNRMC,,V,,,,,,,,,,M*4E
$GNZDA,,,,,,*56
$GPTXT,01,01,01,ANTENNA OPEN*25
$GNGGA,,,,,,0,00,25.5,,,,,,*64
$GNRMC,,V,,,,,,,,,,M*4E
$GNZDA,,,,,,*56
$GPTXT,01,01,01,ANTENNA OPEN*25
$GNGGA,,,,,,0,00,25.5,,,,,,*64
$GNRMC,,V,,,,,,,,,,M*4E
$GNZDA,,,,,,*56
$GPTXT,01,01,01,ANTENNA OPEN*25
$GNGGA,,,,,,0,00,25.5,,,,,,*64
$GNRMC,,V,,,,,,,,,,M*4E
$GNZDA,,,,,,*56
$GPTXT,01,01,01,ANTENNA OPEN*25
$GNGGA,,,,,,0,00,25.5,,,,,,*64
$GNRMC,,V,,,,,,,,,,M*4E
$GNZDA,,,,,,*56
$GPTXT,01,01,01,ANTENNA OPEN*25
$GNGGA,,,,,,0,00,25.5,,,,,,*64
$GNRMC,,V,,,,,,,,,,M*4E
$GNZDA,,,,,,*56
$GPTXT,01,01,01,ANTENNA OPEN*25
$GNGGA,,,,,,0,00,25.5,,,,,,*64
$GNRMC,,V,,,,,,,,,,M*4E
$GNZDA,,,,,,*56
$GPTXT,01,01,01,ANTENNA OPEN*25
$GNGGA,,,,,,0,00,25.5,,,,,,*64
$GNRMC,,V,,,,,,,,,,M*4E
$GNZDA,,,,,,*56
$GPTXT,01,01,01,ANTENNA OPEN*25
$GNGGA,,,,,,0,00,25.5,,,,,,*64
$GNRMC,,V,,,,,,,,,,M*4E
$GNZDA,,,,,,*56
$GPTXT,01,01,01,ANTENNA OPEN*25
$GNGGA,,,,,,0,00,25.5,,,,,,*64
$GNRMC,,V,,,,,,,,,,M*4E
$GNZDA,,,,,,*56
$GPTXT,01,01,01,ANTENNA OPEN*25
$GNGGA,,,,,,0,00,25.5,,,,,,*64
$GNRMC,,V,,,,,,,,,,M*4E
$GNZDA,,,,,,*56
$GPTXT,01,01,01,ANTENNA OPEN*25
$GNGGA,,,,,,0,00,25.5,,,,,,*64
$GNRMC,,V,,,,,,,,,,M*4E
$GNZDA,,,,,,*56
$GPTXT,01,01,01,ANTENNA OPEN*25
$GNGGA,,,,,,0,00,25.5,,,,,,*64
$GNRMC,,V,,,,,,,,,,M*4E
$GNZDA,,,,,,*56
$GPTXT,01,01,01,ANTENNA OPEN*25
$GNGGA,,,,,,0,00,25.5,,,,,,*64
$GNRMC,,V,,,,,,,,,,M*4E
$GNZDA,,,,,,*56
$GPTXT,01,01,01,ANTENNA OPEN*25
$GNGGA,,,,,,0,00,25.5,,,,,,*64
$GNRMC,,V,,,,,,,,,,M*4E
$GNZDA,,,,,,*56
$GPTXT,01,01,01,ANTENNA OPEN*25
$GNGGA,,,,,,0,00,25.5,,,,,,*64
$GNRMC,,V,,,,,,,,,,M*4E
$GNZDA,,,,,,*56
$GPTXT,01,01,01,ANTENNA OPEN*25
$GNGGA,,,,,,0,00,25.5,,,,,,*64
$GNRMC,,V,,,,,,,,,,M*4E
$GNZDA,,,,,,*56
$GPTXT,01,01,01,ANTENNA OPEN*25
$GNGGA,,,,,,0,00,25.5,,,,,,*64
$GNRMC,,V,,,,,,,,,,M*4E
$GNZDA,,,,,,*56
$GPTXT,01,01,01,ANTENNA OPEN*25
$GNGGA,,,,,,0,00,25.5,,,,,,*64
$GNRMC,,V,,,,,,,,,,M*4E
$GNZDA,,,,,,*56
$GPTXT,01,01,01,ANTENNA OPEN*25
$GNGGA,,,,,,0,00,25.5,,,,,,*64
$GNRMC,,V,,,,,,,,,,M*4E
$GNZDA,,,,,,*56
$GPTXT,01,01,01,ANTENNA OPEN*25
$GNGGA,,,,,,0,00,25.5,,,,,,*64
$GNRMC,,V,,,,,,,,,,M*4E
$GNZDA,,,,,,*56
$GPTXT,01,01,01,ANTENNA OPEN*25
$GNGGA,,,,,,0,00,25.5,,,,,,*64
$GNRMC,,V,,,,,,,,,,M*4E
$GNZDA,,,,,,*56
$GPTXT,01,01,01,ANTENNA OPEN*25
$GNGGA,,,,,,0,00,25.5,,,,,,*64
$GNRMC,,V,,,,,,,,,,M*4E
$GNZDA,,,,,,*56
$GPTXT,01,01,01,ANTENNA OPEN*25
$GNGGA,,,,,,0,00,25.5,,,,,,*64
$GNRMC,,V,,,,,,,,,,M*4E
$GNZDA,,,,,,*56
$GPTXT,01,01,01,ANTENNA OPEN*25
$GNGGA,,,,,,0,00,25.5,,,,,,*64
$GNRMC,,V,,,,,,,,,,M*4E
$GNZDA,,,,,,*56
$GPTXT,01,01,01,ANTENNA OPEN*25
$GNGGA,,,,,,0,00,25.5,,,,,,*64
$GNRMC,,V,,,,,,,,,,M*4E
$GNZDA,,,,,,*56
$GPTXT,01,01,01,ANTENNA OPEN*25
$GNGGA,,,,,,0,00,25.5,,,,,,*64
$GNRMC,,V,,,,,,,,,,M*4E
$GNZDA,,,,,,*56
$GPTXT,01,01,01,ANTENNA OPEN*25
$GNGGA,,,,,,0,00,25.5,,,,,,*64
$GNRMC,,V,,,,,,,,,,M*4E
$GNZDA,,,,,,*56
$GPTXT,01,01,01,ANTENNA OPEN*25
$GNGGA,,,,,,0,00,25.5,,,,,,*64
$GNRMC,,V,,,,,,,,,,M*4E
$GNZDA,,,,,,*56
$GPTXT,01,01,01,ANTENNA OPEN*25
$GNGGA,,,,,,0,00,25.5,,,,,,*64
$GNRMC,,V,,,,,,,,,,M*4E
$GNZDA,,,,,,*56
$GPTXT,01,01,01,ANTENNA OPEN*25
$GNGGA,,,,,,0,00,25.5,,,,,,*64
$GNRMC,,V,,,,,,,,,,M*4E
$GNZDA,,,,,,*56
$GPTXT,01,01,01,ANTENNA OPEN*25
$GNGGA,,,,,,0,00,25.5,,,,,,*64
$GNRMC,,V,,,,,,,,,,M*4E
$GNZDA,,,,,,*56
$GPTXT,01,01,01,ANTENNA OPEN*25
$GNGGA,,,,,,0,00,25.5,,,,,,*64
$GNRMC,,V,,,,,,,,,,M*4E
$GNZDA,,,,,,*56
$GPTXT,01,01,01,ANTENNA OPEN*25
$GNGGA,,,,,,0,00,25.5,,,,,,*64
$GNRMC,,V,,,,,,,,,,M*4E
$GNZDA,,,,,,*56
$GPTXT,01,01,01,ANTENNA OPEN*25
$GNGGA,,,,,,0,00,25.5,,,,,,*64
$GNRMC,,V,,,,,,,,,,M*4E
$GNZDA,,,,,,*56
$GPTXT,01,01,01,ANTENNA OPEN*25
$GNGGA,,,,,,0,00,25.5,,,,,,*64
$GNRMC,,V,,,,,,,,,,M*4E
$GNZDA,,,,,,*56
$GPTXT,01,01,01,ANTENNA OPEN*25
$GNGGA,,,,,,0,00,25.5,,,,,,*64
$GNRMC,,V,,,,,,,,,,M*4E
$GNZDA,,,,,,*56
$GPTXT,01,01,01,ANTENNA OPEN*25
$GNGGA,,,,,,0,00,25.5,,,,,,*64
$GNRMC,,V,,,,,,,,,,M*4E
$GNZDA,,,,,,*56
$GPTXT,01,01,01,ANTENNA OPEN*25
$GNGGA,,,,,,0,00,25.5,,,,,,*64
$GNRMC,,V,,,,,,,,,,M*4E
$GNZDA,,,,,,*56
$GPTXT,01,01,01,ANTENNA OPEN*25
$GNGGA,,,,,,0,00,25.5,,,,,,*64
$GNRMC,,V,,,,,,,,,,M*4E
$GNZDA,,,,,,*56
$GPTXT,01,01,01,ANTENNA OPEN*25
$GNGGA,,,,,,0,00,25.5,,,,,,*64
$GNRMC,,V,,,,,,,,,,M*4E
$GNZDA,,,,,,*56
$GPTXT,01,01,01,ANTENNA OPEN*25
$GNGGA,,,,,,0,00,25.5,,,,,,*64
$GNRMC,,V,,,,,,,,,,M*4E
$GNZDA,,,,,,*56
$GPTXT,01,01,01,ANTENNA OPEN*25
$GNGGA,,,,,,0,00,25.5,,,,,,*64
$GNRMC,,V,,,,,,,,,,M*4E
$GNZDA,,,,,,*56
$GPTXT,01,01,01,ANTENNA OPEN*25
$GNGGA,,,,,,0,00,25.5,,,,,,*64
$GNRMC,,V,,,,,,,,,,M*4E
$GNZDA,,,,,,*56
$GPTXT,01,01,01,ANTENNA OPEN*25
$GNGGA,,,,,,0,00,25.5,,,,,,*64
$GNRMC,,V,,,,,,,,,,M*4E
$GNZDA,,,,,,*56
$GPTXT,01,01,01,ANTENNA OPEN*25
$GNGGA,,,,,,0,00,25.5,,,,,,*64
$GNRMC,,V,,,,,,,,,,M*4E
$GNZDA,,,,,,*56
$GPTXT,01,01,01,ANTENNA OPEN*25
$GNGGA,,,,,,0,00,25.5,,,,,,*64
$GNRMC,,V,,,,,,,,,,M*4E
$GNZDA,,,,,,*56
$GPTXT,01,01,01,ANTENNA OPEN*25
$GNGGA,,,,,,0,00,25.5,,,,,,*64
$GNRMC,,V,,,,,,,,,,M*4E
$GNZDA,,,,,,*56
$GPTXT,01,01,01,ANTENNA OPEN*25
$GNGGA,,,,,,0,00,25.5,,,,,,*64
$GNRMC,,V,,,,,,,,,,M*4E
$GNZDA,,,,,,*56
$GPTXT,01,01,01,ANTENNA OPEN*25
$GNGGA,,,,,,0,00,25.5,,,,,,*64
$GNRMC,,V,,,,,,,,,,M*4E
$GNZDA,,,,,,*56
$GPTXT,01,01,01,ANTENNA OPEN*25
$GNGGA,,,,,,0,00,25.5,,,,,,*64
$GNRMC,,V,,,,,,,,,,M*4E
$GNZDA,,,,,,*56
$GPTXT,01,01,01,ANTENNA OPEN*25
$GNGGA,,,,,,0,00,25.5,,,,,,*64
$GNRMC,,V,,,,,,,,,,M*4E
$GNZDA,,,,,,*56
$GPTXT,01,01,01,ANTENNA OPEN*25
$GNGGA,,,,,,0,00,25.5,,,,,,*64
$GNRMC,,V,,,,,,,,,,M*4E
$GNZDA,,,,,,*56
$GPTXT,01,01,01,ANTENNA OPEN*25
$GNGGA,,,,,,0,00,25.5,,,,,,*64
$GNRMC,,V,,,,,,,,,,M*4E
$GNZDA,,,,,,*56
$GPTXT,01,01,01,ANTENNA OPEN*25
$GNGGA,,,,,,0,00,25.5,,,,,,*64
$GNRMC,,V,,,,,,,,,,M*4E
$GNZDA,,,,,,*56
$GPTXT,01,01,01,ANTENNA OPEN*25
$GNGGA,,,,,,0,00,25.5,,,,,,*64
$GNRMC,,V,,,,,,,,,,M*4E
$GNZDA,,,,,,*56
$GPTXT,01,01,01,ANTENNA OPEN*25
$GNGGA,,,,,,0,00,25.5,,,,,,*64
$GNRMC,,V,,,,,,,,,,M*4E
$GNZDA,,,,,,*56
$GPTXT,01,01,01,ANTENNA OPEN*25
$GNGGA,,,,,,0,00,25.5,,,,,,*64
$GNRMC,,V,,,,,,,,,,M*4E
$GNZDA,,,,,,*56
$GPTXT,01,01,01,ANTENNA OPEN*25
$GNGGA,,,,,,0,00,25.5,,,,,,*64
$GNRMC,,V,,,,,,,,,,M*4E
$GNZDA,,,,,,*56
$GPTXT,01,01,01,ANTENNA OPEN*25
$GNGGA,,,,,,0,00,25.5,,,,,,*64
$GNRMC,,V,,,,,,,,,,M*4E
$GNZDA,,,,,,*56
$GPTXT,01,01,01,ANTENNA OPEN*25
$GNGGA,,,,,,0,00,25.5,,,,,,*64
$GNRMC,,V,,,,,,,,,,M*4E
$GNZDA,,,,,,*56
$GPTXT,01,01,01,ANTENNA OPEN*25
$GNGGA,,,,,,0,00,25.5,,,,,,*64
$GNRMC,,V,,,,,,,,,,M*4E
$GNZDA,,,,,,*56
$GPTXT,01,01,01,ANTENNA OPEN*25
$GNGGA,,,,,,0,00,25.5,,,,,,*64
$GNRMC,,V,,,,,,,,,,M*4E
$GNZDA,,,,,,*56
$GPTXT,01,01,01,ANTENNA OPEN*25
$GNGGA,,,,,,0,00,25.5,,,,,,*64
$GNRMC,,V,,,,,,,,,,M*4E
$GNZDA,,,,,,*56
$GPTXT,01,01,01,ANTENNA OPEN*25
$GNGGA,,,,,,0,00,25.5,,,,,,*64
$GNRMC,,V,,,,,,,,,,M*4E
$GNZDA,,,,,,*56
$GPTXT,01,01,01,ANTENNA OPEN*25
$GNGGA,,,,,,0,00,25.5,,,,,,*64
$GNRMC,,V,,,,,,,,,,M*4E
$GNZDA,,,,,,*56
$GPTXT,01,01,01,ANTENNA OPEN*25
$GNGGA,,,,,,0,00,25.5,,,,,,*64
$GNRMC,,V,,,,,,,,,,M*4E
$GNZDA,,,,,,*56
$GPTXT,01,01,01,ANTENNA OPEN*25
$GNGGA,,,,,,0,00,25.5,,,,,,*64
$GNRMC,,V,,,,,,,,,,M*4E
$GNZDA,,,,,,*56
$GPTXT,01,01,01,ANTENNA OPEN*25
$GNGGA,,,,,,0,00,25.5,,,,,,*64
$GNRMC,,V,,,,,,,,,,M*4E
$GNZDA,,,,,,*56
$GPTXT,01,01,01,ANTENNA OPEN*25
$GNGGA,,,,,,0,00,25.5,,,,,,*64
$GNRMC,,V,,,,,,,,,,M*4E
$GNZDA,,,,,,*56
$GPTXT,01,01,01,ANTENNA OPEN*25
$GNGGA,,,,,,0,00,25.5,,,,,,*64
$GNRMC,,V,,,,,,,,,,M*4E
$GNZDA,,,,,,*56
$GPTXT,01,01,01,ANTENNA OPEN*25
$GNGGA,,,,,,0,00,25.5,,,,,,*64
$GNRMC,,V,,,,,,,,,,M*4E
$GNZDA,,,,,,*56
$GPTXT,01,01,01,ANTENNA OPEN*25
$GNGGA,,,,,,0,00,25.5,,,,,,*64
$GNRMC,,V,,,,,,,,,,M*4E
$GNZDA,,,,,,*56
$GPTXT,01,01,01,ANTENNA OPEN*25
$GNGGA,,,,,,0,00,25.5,,,,,,*64
$GNRMC,,V,,,,,,,,,,M*4E
$GNZDA,,,,,,*56
$GPTXT,01,01,01,ANTENNA OPEN*25
$GNGGA,,,,,,0,00,25.5,,,,,,*64
$GNRMC,,V,,,,,,,,,,M*4E
$GNZDA,,,,,,*56
$GPTXT,01,01,01,ANTENNA OPEN*25
$GNGGA,,,,,,0,00,25.5,,,,,,*64
$GNRMC,,V,,,,,,,,,,M*4E
$GNZDA,,,,,,*56
$GPTXT,01,01,01,ANTENNA OPEN*25
$GNGGA,,,,,,0,00,25.5,,,,,,*64
$GNRMC,,V,,,,,,,,,,M*4E
$GNZDA,,,,,,*56
$GPTXT,01,01,01,ANTENNA OPEN*25
$GNGGA,,,,,,0,00,25.5,,,,,,*64
$GNRMC,,V,,,,,,,,,,M*4E
$GNZDA,,,,,,*56
$GPTXT,01,01,01,ANTENNA OPEN*25
$GNGGA,,,,,,0,00,25.5,,,,,,*64
$GNRMC,,V,,,,,,,,,,M*4E
$GNZDA,,,,,,*56
$GPTXT,01,01,01,ANTENNA OPEN*25
$GNGGA,,,,,,0,00,25.5,,,,,,*64
$GNRMC,,V,,,,,,,,,,M*4E
$GNZDA,,,,,,*56
$GPTXT,01,01,01,ANTENNA OPEN*25
$GNGGA,,,,,,0,00,25.5,,,,,,*64
$GNRMC,,V,,,,,,,,,,M*4E
$GNZDA,,,,,,*56
$GPTXT,01,01,01,ANTENNA OPEN*25
$GNGGA,,,,,,0,00,25.5,,,,,,*64
$GNRMC,,V,,,,,,,,,,M*4E
$GNZDA,,,,,,*56
$GPTXT,01,01,01,ANTENNA OPEN*25
$GNGGA,,,,,,0,00,25.5,,,,,,*64
$GNRMC,,V,,,,,,,,,,M*4E
$GNZDA,,,,,,*56
$GPTXT,01,01,01,ANTENNA OPEN*25
$GNGGA,,,,,,0,00,25.5,,,,,,*64
$GNRMC,,V,,,,,,,,,,M*4E
$GNZDA,,,,,,*56
$GPTXT,01,01,01,ANTENNA OPEN*25
$GNGGA,,,,,,0,00,25.5,,,,,,*64
$GNRMC,,V,,,,,,,,,,M*4E
$GNZDA,,,,,,*56
$GPTXT,01,01,01,ANTENNA OPEN*25
$GNGGA,,,,,,0,00,25.5,,,,,,*64
$GNRMC,,V,,,,,,,,,,M*4E
$GNZDA,,,,,,*56
$GPTXT,01,01,01,ANTENNA OPEN*25
$GNGGA,,,,,,0,00,25.5,,,,,,*64
$GNRMC,,V,,,,,,,,,,M*4E
$GNZDA,,,,,,*56
$GPTXT,01,01,01,ANTENNA OPEN*25
$GNGGA,,,,,,0,00,25.5,,,,,,*64
$GNRMC,,V,,,,,,,,,,M*4E
$GNZDA,,,,,,*56
$GPTXT,01,01,01,ANTENNA OPEN*25
$GNGGA,,,,,,0,00,25.5,,,,,,*64
$GNRMC,,V,,,,,,,,,,M*4E
$GNZDA,,,,,,*56
$GPTXT,01,01,01,ANTENNA OPEN*25
$GNGGA,,,,,,0,00,25.5,,,,,,*64
$GNRMC,,V,,,,,,,,,,M*4E
$GNZDA,,,,,,*56
$GPTXT,01,01,01,ANTENNA OPEN*25
$GNGGA,,,,,,0,00,25.5,,,,,,*64
$GNRMC,,V,,,,,,,,,,M*4E
$GNZDA,,,,,,*56
$GPTXT,01,01,01,ANTENNA OPEN*25
$GNGGA,,,,,,0,00,25.5,,,,,,*64
$GNRMC,,V,,,,,,,,,,M*4E
$GNZDA,,,,,,*56
$GPTXT,01,01,01,ANTENNA OPEN*25
$GNGGA,,,,,,0,00,25.5,,,,,,*64
$GNRMC,,V,,,,,,,,,,M*4E
$GNZDA,,,,,,*56
$GPTXT,01,01,01,ANTENNA OPEN*25
$GNGGA,,,,,,0,00,25.5,,,,,,*64
$GNRMC,,V,,,,,,,,,,M*4E
$GNZDA,,,,,,*56
$GPTXT,01,01,01,ANTENNA OPEN*25
$GNGGA,,,,,,0,00,25.5,,,,,,*64
$GNRMC,,V,,,,,,,,,,M*4E
$GNZDA,,,,,,*56
$GPTXT,01,01,01,ANTENNA OPEN*25
$GNGGA,,,,,,0,00,25.5,,,,,,*64
$GNRMC,,V,,,,,,,,,,M*4E
$GNZDA,,,,,,*56
$GPTXT,01,01,01,ANTENNA OPEN*25
$GNGGA,,,,,,0,00,25.5,,,,,,*64
$GNRMC,,V,,,,,,,,,,M*4E
$GNZDA,,,,,,*56
$GPTXT,01,01,01,ANTENNA OPEN*25
$GNGGA,,,,,,0,00,25.5,,,,,,*64
$GNRMC,,V,,,,,,,,,,M*4E
$GNZDA,,,,,,*56
$GPTXT,01,01,01,ANTENNA OPEN*25
$GNGGA,,,,,,0,00,25.5,,,,,,*64
$GNRMC,,V,,,,,,,,,,M*4E
$GNZDA,,,,,,*56
$GPTXT,01,01,01,ANTENNA OPEN*25
$GNGGA,,,,,,0,00,25.5,,,,,,*64
$GNRMC,,V,,,,,,,,,,M*4E
$GNZDA,,,,,,*56
$GPTXT,01,01,01,ANTENNA OPEN*25
$GNGGA,,,,,,0,00,25.5,,,,,,*64
$GNRMC,,V,,,,,,,,,,M*4E
$GNZDA,,,,,,*56
$GPTXT,01,01,01,ANTENNA OPEN*25
$GNGGA,,,,,,0,00,25.5,,,,,,*64
$GNRMC,,V,,,,,,,,,,M*4E
$GNZDA,,,,,,*56
$GPTXT,01,01,01,ANTENNA OPEN*25
$GNGGA,,,,,,0,00,25.5,,,,,,*64
$GNRMC,,V,,,,,,,,,,M*4E
$GNZDA,,,,,,*56
$GPTXT,01,01,01,ANTENNA OPEN*25
$GNGGA,,,,,,0,00,25.5,,,,,,*64
$GNRMC,,V,,,,,,,,,,M*4E
$GNZDA,,,,,,*56
$GPTXT,01,01,01,ANTENNA OPEN*25
$GNGGA,,,,,,0,00,25.5,,,,,,*64
$GNRMC,,V,,,,,,,,,,M*4E
$GNZDA,,,,,,*56
$GPTXT,01,01,01,ANTENNA OPEN*25
$GNGGA,,,,,,0,00,25.5,,,,,,*64
$GNRMC,,V,,,,,,,,,,M*4E
$GNZDA,,,,,,*56
$GPTXT,01,01,01,ANTENNA OPEN*25
$GNGGA,,,,,,0,00,25.5,,,,,,*64
$GNRMC,,V,,,,,,,,,,M*4E
$GNZDA,,,,,,*56
$GPTXT,01,01,01,ANTENNA OPEN*25
$GNGGA,,,,,,0,00,25.5,,,,,,*64
$GNRMC,,V,,,,,,,,,,M*4E
$GNZDA,,,,,,*56
$GPTXT,01,01,01,ANTENNA OPEN*25
$GNGGA,,,,,,0,00,25.5,,,,,,*64
$GNRMC,,V,,,,,,,,,,M*4E
$GNZDA,,,,,,*56
$GPTXT,01,01,01,ANTENNA OPEN*25
$GNGGA,,,,,,0,00,25.5,,,,,,*64
$GNRMC,,V,,,,,,,,,,M*4E
$GNZDA,,,,,,*56
$GPTXT,01,01,01,ANTENNA OPEN*25
$GNGGA,,,,,,0,00,25.5,,,,,,*64
$GNRMC,,V,,,,,,,,,,M*4E
$GNZDA,,,,,,*56
$GPTXT,01,01,01,ANTENNA OPEN*25
$GNGGA,,,,,,0,00,25.5,,,,,,*64
$GNRMC,,V,,,,,,,,,,M*4E
$GNZDA,,,,,,*56
$GPTXT,01,01,01,ANTENNA OPEN*25
$GNGGA,,,,,,0,00,25.5,,,,,,*64
$GNRMC,,V,,,,,,,,,,M*4E
$GNZDA,,,,,,*56
$GPTXT,01,01,01,ANTENNA OPEN*25
$GNGGA,143945.917,,,,,0,00,25.5,,,,,,*7B
$GNRMC,143945.917,V,,,,,,,,,,M*51
$GNZDA,143945.917,,,,,*49
$GPTXT,01,01,01,ANTENNA OPEN*25
$GNGGA,143947.000,,,,,0,00,25.5,,,,,,*76
$GNRMC,143947.000,V,,,,,,,,,,M*5C
$GNZDA,143947.000,,,,,*44
$GPTXT,01,01,01,ANTENNA OPEN*25
$GNGGA,143948.000,,,,,0,00,25.5,,,,,,*79
$GNRMC,143948.000,V,,,,,,,,,,M*53
$GNZDA,143948.000,,,,,*4B
$GPTXT,01,01,01,ANTENNA OPEN*25
$GNGGA,143949.000,,,,,0,00,25.5,,,,,,*78
$GNRMC,143949.000,V,,,,,,,,,,M*52
$GNZDA,143949.000,,,,,*4A
$GPTXT,01,01,01,ANTENNA OPEN*25
$GNGGA,143950.000,,,,,0,00,25.5,,,,,,*70
$GNRMC,143950.000,V,,,,,,,,,,M*5A
$GNZDA,143950.000,,,,,*42
$GPTXT,01,01,01,ANTENNA OPEN*25
$GNGGA,143951.000,,,,,0,00,25.5,,,,,,*71
$GNRMC,143951.000,V,,,,,,,,,,M*5B
$GNZDA,143951.000,,,,,*43
$GPTXT,01,01,01,ANTENNA OPEN*25
$GNGGA,143952.000,,,,,0,00,25.5,,,,,,*72
$GNRMC,143952.000,V,,,,,,,,,,M*58
$GNZDA,143952.000,,,,,*40
$GPTXT,01,01,01,ANTENNA OPEN*25
$GNGGA,143953.000,,,,,0,00,25.5,,,,,,*73
$GNRMC,143953.000,V,,,,,,,,,,M*59
$GNZDA,143953.000,,,,,*41
$GPTXT,01,01,01,ANTENNA OPEN*25
$GNGGA,143954.000,,,,,0,00,25.5,,,,,,*74
$GNRMC,143954.000,V,,,,,,,,,,M*5E
$GNZDA,143954.000,,,,,*46
$GPTXT,01,01,01,ANTENNA OPEN*25
$GNGGA,143955.000,,,,,0,00,25.5,,,,,,*75
$GNRMC,143955.000,V,,,,,,,,,,M*5F
$GNZDA,143955.000,,,,,*47
$GPTXT,01,01,01,ANTENNA OPEN*25
$GNGGA,143956.000,,,,,0,00,25.5,,,,,,*76
$GNRMC,143956.000,V,,,,,,,,,,M*5C
$GNZDA,143956.000,,,,,*44
$GPTXT,01,01,01,ANTENNA OPEN*25
$GNGGA,143957.000,,,,,0,00,25.5,,,,,,*77
$GNRMC,143957.000,V,,,,,,,,,,M*5D
$GNZDA,143957.000,,,,,*45
$GPTXT,01,01,01,ANTENNA OPEN*25
$GNGGA,143957.993,4241.07528,N,00302.05119,E,6,05,5.9,59.5,M,0.0,M,,*4D
$GNRMC,143957.993,V,4241.07528,N,00302.05119,E,1.41,0.00,,,,E*6F
$GNZDA,143957.993,03,09,2024,00,00*48
$GPTXT,01,01,01,ANTENNA OPEN*25
$GNGGA,143959.000,4241.07565,N,00302.05068,E,6,05,5.9,59.4,M,0.0,M,,*4F
$GNRMC,143959.000,V,4241.07565,N,00302.05068,E,2.44,301.41,,,,E*6D
$GNZDA,143959.000,03,09,2024,00,00*45
$GPTXT,01,01,01,ANTENNA OPEN*25
$GNGGA,144000.000,4241.07594,N,00302.05000,E,1,05,5.9,59.2,M,0.0,M,,*4C
$GNRMC,144000.000,V,4241.07594,N,00302.05000,E,1.51,301.41,,,,A*6C
$GNZDA,144000.000,03,09,2024,00,00*47
$GPTXT,01,01,01,ANTENNA OPEN*25
$GNGGA,144001.000,4241.07583,N,00302.04942,E,1,05,5.9,58.9,M,0.0,M,,*4F
$GNRMC,144001.000,V,4241.07583,N,00302.04942,E,1.96,208.76,,,,A*62
$GNZDA,144001.000,03,09,2024,00,00*46
$GPTXT,01,01,01,ANTENNA OPEN*25
$GNGGA,144002.000,4241.07546,N,00302.04900,E,1,05,5.9,58.5,M,0.0,M,,*4F
$GNRMC,144002.000,V,4241.07546,N,00302.04900,E,1.55,208.76,,,,A*61
$GNZDA,144002.000,03,09,2024,00,00*45
$GPTXT,01,01,01,ANTENNA OPEN*25
$GNGGA,144003.000,4241.07536,N,00302.04938,E,1,06,2.5,58.2,M,0.0,M,,*4D
$GNRMC,144003.000,A,4241.07536,N,00302.04938,E,1.26,208.76,030924,,,A*73
$GNZDA,144003.000,03,09,2024,00,00*44
$GPTXT,01,01,01,ANTENNA OPEN*25
$GNGGA,144004.000,4241.07550,N,00302.04965,E,1,07,2.1,57.8,M,0.0,M,,*42
$GNRMC,144004.000,A,4241.07550,N,00302.04965,E,3.03,214.01,030924,,,A*74
$GNZDA,144004.000,03,09,2024,00,00*43
$GPTXT,01,01,01,ANTENNA OPEN*25
$GNGGA,144005.000,4241.07479,N,00302.05100,E,1,07,2.1,58.2,M,0.0,M,,*46
$GNRMC,144005.000,A,4241.07479,N,00302.05100,E,1.87,214.01,030924,,,A*7B
$GNZDA,144005.000,03,09,2024,00,00*42
$GPTXT,01,01,01,ANTENNA OPEN*25
$GNGGA,144006.000,4241.07471,N,00302.05171,E,1,08,1.8,58.7,M,0.0,M,,*4B
$GNRMC,144006.000,A,4241.07471,N,00302.05171,E,0.57,214.01,030924,,,A*7A
$GNZDA,144006.000,03,09,2024,00,00*41
$GPTXT,01,01,01,ANTENNA OPEN*25
$GNGGA,144007.000,4241.07513,N,00302.05245,E,1,08,1.8,59.1,M,0.0,M,,*4C
$GNRMC,144007.000,A,4241.07513,N,00302.05245,E,1.07,214.01,030924,,,A*7E
$GNZDA,144007.000,03,09,2024,00,00*40
$GPTXT,01,01,01,ANTENNA OPEN*25
$GNGGA,144008.000,4241.07562,N,00302.05335,E,1,08,1.8,59.8,M,0.0,M,,*4A
$GNRMC,144008.000,A,4241.07562,N,00302.05335,E,1.51,214.01,030924,,,A*72
$GNZDA,144008.000,03,09,2024,00,00*4F
$GPTXT,01,01,01,ANTENNA OPEN*25
$GNGGA,144009.000,4241.07597,N,00302.05366,E,1,08,1.8,60.2,M,0.0,M,,*47
$GNRMC,144009.000,A,4241.07597,N,00302.05366,E,0.42,214.01,030924,,,A*7C
$GNZDA,144009.000,03,09,2024,00,00*4E
$GPTXT,01,01,01,ANTENNA OPEN*25
$GNGGA,144010.000,4241.07574,N,00302.05344,E,1,08,1.8,59.0,M,0.0,M,,*4A
$GNRMC,144010.000,A,4241.07574,N,00302.05344,E,0.93,214.01,030924,,,A*75
$GNZDA,144010.000,03,09,2024,00,00*46
$GPTXT,01,01,01,ANTENNA OPEN*25
$GNGGA,144011.000,4241.07554,N,00302.05352,E,1,08,1.8,58.9,M,0.0,M,,*46
$GNRMC,144011.000,A,4241.07554,N,00302.05352,E,0.73,214.01,030924,,,A*7F
$GNZDA,144011.000,03,09,2024,00,00*47
$GPTXT,01,01,01,ANTENNA OPEN*25
$GNGGA,144012.000,4241.07563,N,00302.05367,E,1,08,1.8,58.6,M,0.0,M,,*48
$GNRMC,144012.000,A,4241.07563,N,00302.05367,E,0.54,214.01,030924,,,A*7B
$GNZDA,144012.000,03,09,2024,00,00*44
$GPTXT,01,01,01,ANTENNA OPEN*25
$GNGGA,144013.000,4241.07596,N,00302.05400,E,1,08,1.8,58.5,M,0.0,M,,*46
$GNRMC,144013.000,A,4241.07596,N,00302.05400,E,1.12,214.01,030924,,,A*75
$GNZDA,144013.000,03,09,2024,00,00*45
$GPTXT,01,01,01,ANTENNA OPEN*25
$GNGGA,144014.000,4241.07621,N,00302.05401,E,1,08,1.8,58.0,M,0.0,M,,*4A
$GNRMC,144014.000,A,4241.07621,N,00302.05401,E,1.03,214.01,030924,,,A*7C
$GNZDA,144014.000,03,09,2024,00,00*42
$GPTXT,01,01,01,ANTENNA OPEN*25
$GNGGA,144015.000,4241.07656,N,00302.05405,E,1,08,1.8,57.5,M,0.0,M,,*45
$GNRMC,144015.000,A,4241.07656,N,00302.05405,E,1.23,214.01,030924,,,A*7B
$GNZDA,144015.000,03,09,2024,00,00*43
$GPTXT,01,01,01,ANTENNA OPEN*25
$GNGGA,144016.000,4241.07677,N,00302.05432,E,1,08,1.8,57.2,M,0.0,M,,*46
$GNRMC,144016.000,A,4241.07677,N,00302.05432,E,0.68,214.01,030924,,,A*71
$GNZDA,144016.000,03,09,2024,00,00*40
$GPTXT,01,01,01,ANTENNA OPEN*25
$GNGGA,144017.000,4241.07691,N,00302.05463,E,1,08,1.8,56.9,M,0.0,M,,*41
$GNRMC,144017.000,A,4241.07691,N,00302.05463,E,0.52,214.01,030924,,,A*75
$GNZDA,144017.000,03,09,2024,00,00*41
$GPTXT,01,01,01,ANTENNA OPEN*25
$GNGGA,144018.000,4241.07701,N,00302.05476,E,1,08,1.8,57.1,M,0.0,M,,*4B
$GNRMC,144018.000,A,4241.07701,N,00302.05476,E,0.00,214.01,030924,,,A*71
$GNZDA,144018.000,03,09,2024,00,00*4E
$GPTXT,01,01,01,ANTENNA OPEN*25
$GNGGA,144019.000,4241.07716,N,00302.05486,E,1,08,1.8,57.3,M,0.0,M,,*41
$GNRMC,144019.000,A,4241.07716,N,00302.05486,E,0.00,214.01,030924,,,A*79
$GNZDA,144019.000,03,09,2024,00,00*4F
$GPTXT,01,01,01,ANTENNA OPEN*25
$GNGGA,144020.000,4241.07724,N,00302.05497,E,1,08,1.8,57.4,M,0.0,M,,*4D
$GNRMC,144020.000,A,4241.07724,N,00302.05497,E,0.00,214.01,030924,,,A*72
$GNZDA,144020.000,03,09,2024,00,00*45
$GPTXT,01,01,01,ANTENNA OPEN*25
$GNGGA,144021.000,4241.07734,N,00302.05509,E,1,08,1.8,57.4,M,0.0,M,,*4B
$GNRMC,144021.000,A,4241.07734,N,00302.05509,E,0.00,214.01,030924,,,A*74
$GNZDA,144021.000,03,09,2024,00,00*44
$GPTXT,01,01,01,ANTENNA OPEN*25
$GNGGA,144022.000,4241.07772,N,00302.05504,E,1,08,1.8,56.9,M,0.0,M,,*4B
$GNRMC,144022.000,A,4241.07772,N,00302.05504,E,1.15,214.01,030924,,,A*7D
$GNZDA,144022.000,03,09,2024,00,00*47
$GPTXT,01,01,01,ANTENNA OPEN*25
$GNGGA,144023.000,4241.07792,N,00302.05477,E,1,08,1.8,55.6,M,0.0,M,,*4D
$GNRMC,144023.000,A,4241.07792,N,00302.05477,E,0.72,214.01,030924,,,A*77
$GNZDA,144023.000,03,09,2024,00,00*46
$GPTXT,01,01,01,ANTENNA OPEN*25
$GNGGA,144024.000,4241.07830,N,00302.05499,E,1,08,1.8,55.4,M,0.0,M,,*4F
$GNRMC,144024.000,A,4241.07830,N,00302.05499,E,0.68,214.01,030924,,,A*7C
$GNZDA,144024.000,03,09,2024,00,00*41
$GPTXT,01,01,01,ANTENNA OPEN*25
$GNGGA,144025.000,4241.07841,N,00302.05514,E,1,08,1.8,55.6,M,0.0,M,,*4E
$GNRMC,144025.000,A,4241.07841,N,00302.05514,E,0.00,214.01,030924,,,A*71
$GNZDA,144025.000,03,09,2024,00,00*40
$GPTXT,01,01,01,ANTENNA OPEN*25
$GNGGA,144026.000,4241.07852,N,00302.05524,E,1,08,1.8,55.7,M,0.0,M,,*4D
$GNRMC,144026.000,A,4241.07852,N,00302.05524,E,0.00,214.01,030924,,,A*73
$GNZDA,144026.000,03,09,2024,00,00*43
$GPTXT,01,01,01,ANTENNA OPEN*25
$GNGGA,144027.000,4241.07860,N,00302.05531,E,1,08,1.8,55.8,M,0.0,M,,*46
$GNRMC,144027.000,A,4241.07860,N,00302.05531,E,0.00,214.01,030924,,,A*77
$GNZDA,144027.000,03,09,2024,00,00*42
$GPTXT,01,01,01,ANTENNA OPEN*25
$GNGGA,144028.000,4241.07866,N,00302.05535,E,1,08,1.8,55.8,M,0.0,M,,*4B
$GNRMC,144028.000,A,4241.07866,N,00302.05535,E,0.00,214.01,030924,,,A*7A
$GNZDA,144028.000,03,09,2024,00,00*4D
$GPTXT,01,01,01,ANTENNA OPEN*25
$GNGGA,144029.000,4241.07874,N,00302.05541,E,1,08,1.8,55.8,M,0.0,M,,*4A
$GNRMC,144029.000,A,4241.07874,N,00302.05541,E,0.00,214.01,030924,,,A*7B
$GNZDA,144029.000,03,09,2024,00,00*4C
$GPTXT,01,01,01,ANTENNA OPEN*25
$GNGGA,144030.000,4241.07880,N,00302.05548,E,1,08,1.8,55.8,M,0.0,M,,*40
$GNRMC,144030.000,A,4241.07880,N,00302.05548,E,0.00,214.01,030924,,,A*71
$GNZDA,144030.000,03,09,2024,00,00*44
$GPTXT,01,01,01,ANTENNA OPEN*25
$GNGGA,144031.000,4241.07881,N,00302.05551,E,1,08,1.8,55.9,M,0.0,M,,*49
$GNRMC,144031.000,A,4241.07881,N,00302.05551,E,0.00,214.01,030924,,,A*79
$GNZDA,144031.000,03,09,2024,00,00*45
$GPTXT,01,01,01,ANTENNA OPEN*25
$GNGGA,144032.000,4241.07887,N,00302.05557,E,1,08,1.8,55.9,M,0.0,M,,*4A
$GNRMC,144032.000,A,4241.07887,N,00302.05557,E,0.00,214.01,030924,,,A*7A
$GNZDA,144032.000,03,09,2024,00,00*46
$GPTXT,01,01,01,ANTENNA OPEN*25
$GNGGA,144033.000,4241.07866,N,00302.05549,E,1,08,1.8,55.6,M,0.0,M,,*44
$GNRMC,144033.000,A,4241.07866,N,00302.05549,E,1.05,214.01,030924,,,A*7F
$GNZDA,144033.000,03,09,2024,00,00*47
$GPTXT,01,01,01,ANTENNA OPEN*25
$GNGGA,144034.000,4241.07874,N,00302.05559,E,1,08,1.8,55.8,M,0.0,M,,*4F
$GNRMC,144034.000,A,4241.07874,N,00302.05559,E,0.00,214.01,030924,,,A*7E
$GNZDA,144034.000,03,09,2024,00,00*40
$GPTXT,01,01,01,ANTENNA OPEN*25
$GNGGA,144035.000,4241.07880,N,00302.05567,E,1,09,1.7,55.9,M,0.0,M,,*47
$GNRMC,144035.000,A,4241.07880,N,00302.05567,E,0.00,214.01,030924,,,A*79
$GNZDA,144035.000,03,09,2024,00,00*41
$GPTXT,01,01,01,ANTENNA OPEN*25
$GNGGA,144036.000,4241.07886,N,00302.05573,E,1,09,1.7,56.0,M,0.0,M,,*4D
$GNRMC,144036.000,A,4241.07886,N,00302.05573,E,0.00,214.01,030924,,,A*79
$GNZDA,144036.000,03,09,2024,00,00*42
$GPTXT,01,01,01,ANTENNA OPEN*25
$GNGGA,144037.000,4241.07892,N,00302.05580,E,1,09,1.7,56.0,M,0.0,M,,*45
$GNRMC,144037.000,A,4241.07892,N,00302.05580,E,0.00,214.01,030924,,,A*71
$GNZDA,144037.000,03,09,2024,00,00*43
$GPTXT,01,01,01,ANTENNA OPEN*25
$GNGGA,144038.000,4241.07900,N,00302.05588,E,1,09,1.7,56.1,M,0.0,M,,*49
$GNRMC,144038.000,A,4241.07900,N,00302.05588,E,0.00,214.01,030924,,,A*7C
$GNZDA,144038.000,03,09,2024,00,00*4C
$GPTXT,01,01,01,ANTENNA OPEN*25
$GNGGA,144039.000,4241.07906,N,00302.05594,E,1,09,1.7,56.2,M,0.0,M,,*40
$GNRMC,144039.000,A,4241.07906,N,00302.05594,E,0.00,214.01,030924,,,A*76
$GNZDA,144039.000,03,09,2024,00,00*4D
$GPTXT,01,01,01,ANTENNA OPEN*25
$GNGGA,144040.000,4241.07911,N,00302.05599,E,1,09,1.7,56.2,M,0.0,M,,*45
$GNRMC,144040.000,A,4241.07911,N,00302.05599,E,0.00,214.01,030924,,,A*73
$GNZDA,144040.000,03,09,2024,00,00*43
$GPTXT,01,01,01,ANTENNA OPEN*25
$GNGGA,144041.000,4241.07867,N,00302.05595,E,1,09,1.7,56.2,M,0.0,M,,*48
$GNRMC,144041.000,A,4241.07867,N,00302.05595,E,1.87,214.01,030924,,,A*70
$GNZDA,144041.000,03,09,2024,00,00*42
$GPTXT,01,01,01,ANTENNA OPEN*25
$GNGGA,144042.000,4241.07876,N,00302.05602,E,1,09,1.7,56.4,M,0.0,M,,*40
$GNRMC,144042.000,A,4241.07876,N,00302.05602,E,0.00,214.01,030924,,,A*70
$GNZDA,144042.000,03,09,2024,00,00*41
$GPTXT,01,01,01,ANTENNA OPEN*25
$GNGGA,144043.000,4241.07881,N,00302.05608,E,1,09,1.7,56.5,M,0.0,M,,*42
$GNRMC,144043.000,A,4241.07881,N,00302.05608,E,0.00,214.01,030924,,,A*73
$GNZDA,144043.000,03,09,2024,00,00*40
$GPTXT,01,01,01,ANTENNA OPEN*25
$GNGGA,144044.000,4241.07882,N,00302.05614,E,1,09,1.7,56.6,M,0.0,M,,*48
$GNRMC,144044.000,A,4241.07882,N,00302.05614,E,0.00,214.01,030924,,,A*7A
$GNZDA,144044.000,03,09,2024,00,00*47
$GPTXT,01,01,01,ANTENNA OPEN*25
$GNGGA,144045.000,4241.07891,N,00302.05590,E,1,09,1.7,56.9,M,0.0,M,,*4B
$GNRMC,144045.000,A,4241.07891,N,00302.05590,E,0.87,214.01,030924,,,A*79
$GNZDA,144045.000,03,09,2024,00,00*46
$GPTXT,01,01,01,ANTENNA OPEN*25
$GNGGA,144046.000,4241.07891,N,00302.05585,E,1,09,1.7,56.8,M,0.0,M,,*4D
$GNRMC,144046.000,A,4241.07891,N,00302.05585,E,0.00,214.01,030924,,,A*71
$GNZDA,144046.000,03,09,2024,00,00*45
$GPTXT,01,01,01,ANTENNA OPEN*25
$GNGGA,144047.000,4241.07894,N,00302.05584,E,1,09,1.7,56.7,M,0.0,M,,*47
$GNRMC,144047.000,A,4241.07894,N,00302.05584,E,0.00,214.01,030924,,,A*74
$GNZDA,144047.000,03,09,2024,00,00*44
$GPTXT,01,01,01,ANTENNA OPEN*25
$GNGGA,144048.000,4241.07900,N,00302.05583,E,1,09,1.7,56.8,M,0.0,M,,*4C
$GNRMC,144048.000,A,4241.07900,N,00302.05583,E,0.00,214.01,030924,,,A*70
$GNZDA,144048.000,03,09,2024,00,00*4B
$GPTXT,01,01,01,ANTENNA OPEN*25
$GNGGA,144049.000,4241.07920,N,00302.05563,E,1,09,1.7,57.1,M,0.0,M,,*49
$GNRMC,144049.000,A,4241.07920,N,00302.05563,E,0.76,214.01,030924,,,A*7C
$GNZDA,144049.000,03,09,2024,00,00*4A
$GPTXT,01,01,01,ANTENNA OPEN*25
$GNGGA,144050.000,4241.07924,N,00302.05565,E,1,09,1.7,57.1,M,0.0,M,,*43
$GNRMC,144050.000,A,4241.07924,N,00302.05565,E,0.00,214.01,030924,,,A*77
$GNZDA,144050.000,03,09,2024,00,00*42
$GPTXT,01,01,01,ANTENNA OPEN*25
$GNGGA,144051.000,4241.07932,N,00302.05567,E,1,09,1.7,57.1,M,0.0,M,,*47
$GNRMC,144051.000,A,4241.07932,N,00302.05567,E,0.00,214.01,030924,,,A*73
$GNZDA,144051.000,03,09,2024,00,00*43
$GPTXT,01,01,01,ANTENNA OPEN*25
$GNGGA,144052.000,4241.07936,N,00302.05569,E,1,09,1.7,57.1,M,0.0,M,,*4E
$GNRMC,144052.000,A,4241.07936,N,00302.05569,E,0.00,214.01,030924,,,A*7A
$GNZDA,144052.000,03,09,2024,00,00*40
$GPTXT,01,01,01,ANTENNA OPEN*25
$GNGGA,144053.000,4241.07914,N,00302.05528,E,1,09,1.7,56.5,M,0.0,M,,*4F
$GNRMC,144053.000,A,4241.07914,N,00302.05528,E,1.66,214.01,030924,,,A*7F
$GNZDA,144053.000,03,09,2024,00,00*41
$GPTXT,01,01,01,ANTENNA OPEN*25
$GNGGA,144054.000,4241.07919,N,00302.05530,E,1,09,1.7,56.5,M,0.0,M,,*4C
$GNRMC,144054.000,A,4241.07919,N,00302.05530,E,0.00,214.01,030924,,,A*7D
$GNZDA,144054.000,03,09,2024,00,00*46
$GPTXT,01,01,01,ANTENNA OPEN*25
$GNGGA,144055.000,4241.07923,N,00302.05533,E,1,09,1.7,56.6,M,0.0,M,,*44
$GNRMC,144055.000,A,4241.07923,N,00302.05533,E,0.00,214.01,030924,,,A*76
$GNZDA,144055.000,03,09,2024,00,00*47
$GPTXT,01,01,01,ANTENNA OPEN*25
$GNGGA,144056.000,4241.07925,N,00302.05530,E,1,09,1.7,56.6,M,0.0,M,,*42
$GNRMC,144056.000,A,4241.07925,N,00302.05530,E,0.00,214.01,030924,,,A*70
$GNZDA,144056.000,03,09,2024,00,00*44
$GPTXT,01,01,01,ANTENNA OPEN*25
$GNGGA,144057.000,4241.07944,N,00302.05582,E,1,09,1.7,56.8,M,0.0,M,,*43
$GNRMC,144057.000,A,4241.07944,N,00302.05582,E,1.69,214.01,030924,,,A*71
$GNZDA,144057.000,03,09,2024,00,00*45
$GPTXT,01,01,01,ANTENNA OPEN*25
$GNGGA,144058.000,4241.07947,N,00302.05632,E,1,09,1.7,57.1,M,0.0,M,,*4F
$GNRMC,144058.000,A,4241.07947,N,00302.05632,E,1.56,214.01,030924,,,A*79
$GNZDA,144058.000,03,09,2024,00,00*4A
$GPTXT,01,01,01,ANTENNA OPEN*25
$GNGGA,144059.000,4241.07950,N,00302.05624,E,1,09,1.7,57.0,M,0.0,M,,*4E
$GNRMC,144059.000,A,4241.07950,N,00302.05624,E,0.00,214.01,030924,,,A*7B
$GNZDA,144059.000,03,09,2024,00,00*4B
$GPTXT,01,01,01,ANTENNA OPEN*25
$GNGGA,144100.000,4241.07951,N,00302.05619,E,1,09,1.7,56.9,M,0.0,M,,*44
$GNRMC,144100.000,A,4241.07951,N,00302.05619,E,0.00,214.01,030924,,,A*79
$GNZDA,144100.000,03,09,2024,00,00*46
$GPTXT,01,01,01,ANTENNA OPEN*25
$GNGGA,144101.000,4241.07951,N,00302.05614,E,1,09,1.7,56.9,M,0.0,M,,*48
$GNRMC,144101.000,A,4241.07951,N,00302.05614,E,0.00,214.01,030924,,,A*75
$GNZDA,144101.000,03,09,2024,00,00*47
$GPTXT,01,01,01,ANTENNA OPEN*25
$GNGGA,144102.000,4241.07951,N,00302.05611,E,1,09,1.7,56.9,M,0.0,M,,*4E
$GNRMC,144102.000,A,4241.07951,N,00302.05611,E,0.00,214.01,030924,,,A*73
$GNZDA,144102.000,03,09,2024,00,00*44
$GPTXT,01,01,01,ANTENNA OPEN*25
$GNGGA,144103.000,4241.07952,N,00302.05608,E,1,09,1.7,56.9,M,0.0,M,,*44
$GNRMC,144103.000,A,4241.07952,N,00302.05608,E,0.00,214.01,030924,,,A*79
$GNZDA,144103.000,03,09,2024,00,00*45
$GPTXT,01,01,01,ANTENNA OPEN*25
$GNGGA,144104.000,4241.07954,N,00302.05607,E,1,09,1.7,56.9,M,0.0,M,,*4A
$GNRMC,144104.000,A,4241.07954,N,00302.05607,E,0.00,214.01,030924,,,A*77
$GNZDA,144104.000,03,09,2024,00,00*42
$GPTXT,01,01,01,ANTENNA OPEN*25
$GNGGA,144105.000,4241.07955,N,00302.05607,E,1,09,1.7,56.9,M,0.0,M,,*4A
$GNRMC,144105.000,A,4241.07955,N,00302.05607,E,0.00,214.01,030924,,,A*77
$GNZDA,144105.000,03,09,2024,00,00*43
$GPTXT,01,01,01,ANTENNA OPEN*25
$GNGGA,144106.000,4241.07955,N,00302.05604,E,1,09,1.7,56.9,M,0.0,M,,*4A
$GNRMC,144106.000,A,4241.07955,N,00302.05604,E,0.00,214.01,030924,,,A*77
$GNZDA,144106.000,03,09,2024,00,00*40
$GPTXT,01,01,01,ANTENNA OPEN*25
$GNGGA,144107.000,4241.07955,N,00302.05602,E,1,09,1.7,56.9,M,0.0,M,,*4D
$GNRMC,144107.000,A,4241.07955,N,00302.05602,E,0.00,214.01,030924,,,A*70
$GNZDA,144107.000,03,09,2024,00,00*41
$GPTXT,01,01,01,ANTENNA OPEN*25
$GNGGA,144108.000,4241.07957,N,00302.05600,E,1,09,1.7,56.9,M,0.0,M,,*42
$GNRMC,144108.000,A,4241.07957,N,00302.05600,E,0.00,214.01,030924,,,A*7F
$GNZDA,144108.000,03,09,2024,00,00*4E
$GPTXT,01,01,01,ANTENNA OPEN*25
$GNGGA,144109.000,4241.07959,N,00302.05599,E,1,09,1.7,56.9,M,0.0,M,,*4E
$GNRMC,144109.000,A,4241.07959,N,00302.05599,E,0.00,214.01,030924,,,A*73
$GNZDA,144109.000,03,09,2024,00,00*4F
$GPTXT,01,01,01,ANTENNA OPEN*25
$GNGGA,144110.000,4241.07963,N,00302.05599,E,1,09,1.7,56.9,M,0.0,M,,*4F
$GNRMC,144110.000,A,4241.07963,N,00302.05599,E,0.00,214.01,030924,,,A*72
$GNZDA,144110.000,03,09,2024,00,00*47
$GPTXT,01,01,01,ANTENNA OPEN*25
$GNGGA,144111.000,4241.07967,N,00302.05599,E,1,09,1.7,56.8,M,0.0,M,,*4B
$GNRMC,144111.000,A,4241.07967,N,00302.05599,E,0.00,214.01,030924,,,A*77
$GNZDA,144111.000,03,09,2024,00,00*46
$GPTXT,01,01,01,ANTENNA OPEN*25
$GNGGA,144112.000,4241.07971,N,00302.05599,E,1,09,1.7,56.8,M,0.0,M,,*4F
$GNRMC,144112.000,A,4241.07971,N,00302.05599,E,0.00,214.01,030924,,,A*73
$GNZDA,144112.000,03,09,2024,00,00*45
$GPTXT,01,01,01,ANTENNA OPEN*25
$GNGGA,144113.000,4241.07974,N,00302.05598,E,1,09,1.7,56.8,M,0.0,M,,*4A
$GNRMC,144113.000,A,4241.07974,N,00302.05598,E,0.00,214.01,030924,,,A*76
$GNZDA,144113.000,03,09,2024,00,00*44
$GPTXT,01,01,01,ANTENNA OPEN*25
$GNGGA,144114.000,4241.07978,N,00302.05598,E,1,09,1.7,56.8,M,0.0,M,,*41
$GNRMC,144114.000,A,4241.07978,N,00302.05598,E,0.00,214.01,030924,,,A*7D
$GNZDA,144114.000,03,09,2024,00,00*43
$GPTXT,01,01,01,ANTENNA OPEN*25
$GNGGA,144115.000,4241.07949,N,00302.05592,E,1,09,1.7,57.7,M,0.0,M,,*46
$GNRMC,144115.000,A,4241.07949,N,00302.05592,E,1.22,214.01,030924,,,A*75
$GNZDA,144115.000,03,09,2024,00,00*42
$GPTXT,01,01,01,ANTENNA OPEN*25
$GNGGA,144116.000,4241.07953,N,00302.05586,E,1,09,1.7,57.4,M,0.0,M,,*48
$GNRMC,144116.000,A,4241.07953,N,00302.05586,E,0.00,214.01,030924,,,A*79
$GNZDA,144116.000,03,09,2024,00,00*41
$GPTXT,01,01,01,ANTENNA OPEN*25
$GNGGA,144117.000,4241.07957,N,00302.05584,E,1,09,1.7,57.3,M,0.0,M,,*48
$GNRMC,144117.000,A,4241.07957,N,00302.05584,E,0.00,214.01,030924,,,A*7E
$GNZDA,144117.000,03,09,2024,00,00*40
$GPTXT,01,01,01,ANTENNA OPEN*25
$GNGGA,144118.000,4241.07961,N,00302.05584,E,1,09,1.7,57.3,M,0.0,M,,*42
$GNRMC,144118.000,A,4241.07961,N,00302.05584,E,0.00,214.01,030924,,,A*74
$GNZDA,144118.000,03,09,2024,00,00*4F
$GPTXT,01,01,01,ANTENNA OPEN*25
$GNGGA,144119.000,4241.07964,N,00302.05584,E,1,09,1.7,57.3,M,0.0,M,,*46
$GNRMC,144119.000,A,4241.07964,N,00302.05584,E,0.00,214.01,030924,,,A*70
$GNZDA,144119.000,03,09,2024,00,00*4E
$GPTXT,01,01,01,ANTENNA OPEN*25
$GNGGA,144120.000,4241.07967,N,00302.05583,E,1,09,1.7,57.3,M,0.0,M,,*48
$GNRMC,144120.000,A,4241.07967,N,00302.05583,E,0.00,214.01,030924,,,A*7E
$GNZDA,144120.000,03,09,2024,00,00*44
$GPTXT,01,01,01,ANTENNA OPEN*25
$GNGGA,144121.000,4241.07970,N,00302.05583,E,1,09,1.7,57.3,M,0.0,M,,*4F
$GNRMC,144121.000,A,4241.07970,N,00302.05583,E,0.00,214.01,030924,,,A*79
$GNZDA,144121.000,03,09,2024,00,00*45
$GPTXT,01,01,01,ANTENNA OPEN*25
$GNGGA,144122.000,4241.07972,N,00302.05583,E,1,09,1.7,57.3,M,0.0,M,,*4E
$GNRMC,144122.000,A,4241.07972,N,00302.05583,E,0.00,214.01,030924,,,A*78
$GNZDA,144122.000,03,09,2024,00,00*46
$GPTXT,01,01,01,ANTENNA OPEN*25
$GNGGA,144123.000,4241.07974,N,00302.05583,E,1,09,1.7,57.3,M,0.0,M,,*49
$GNRMC,144123.000,A,4241.07974,N,00302.05583,E,0.00,214.01,030924,,,A*7F
$GNZDA,144123.000,03,09,2024,00,00*47
$GPTXT,01,01,01,ANTENNA OPEN*25
$GNGGA,144124.000,4241.07976,N,00302.05583,E,1,09,1.7,57.3,M,0.0,M,,*4C
$GNRMC,144124.000,A,4241.07976,N,00302.05583,E,0.00,214.01,030924,,,A*7A
$GNZDA,144124.000,03,09,2024,00,00*40
$GPTXT,01,01,01,ANTENNA OPEN*25
$GNGGA,144125.000,4241.07977,N,00302.05582,E,1,09,1.7,57.3,M,0.0,M,,*4D
$GNRMC,144125.000,A,4241.07977,N,00302.05582,E,0.00,214.01,030924,,,A*7B
$GNZDA,144125.000,03,09,2024,00,00*41
$GPTXT,01,01,01,ANTENNA OPEN*25
$GNGGA,144126.000,4241.07979,N,00302.05581,E,1,09,1.7,57.3,M,0.0,M,,*43
$GNRMC,144126.000,A,4241.07979,N,00302.05581,E,0.00,214.01,030924,,,A*75
$GNZDA,144126.000,03,09,2024,00,00*42
$GPTXT,01,01,01,ANTENNA OPEN*25
$GNGGA,144127.000,4241.07978,N,00302.05579,E,1,09,1.7,57.2,M,0.0,M,,*45
$GNRMC,144127.000,A,4241.07978,N,00302.05579,E,0.00,214.01,030924,,,A*72
$GNZDA,144127.000,03,09,2024,00,00*43
$GPTXT,01,01,01,ANTENNA OPEN*25
$GNGGA,144128.000,4241.07978,N,00302.05577,E,1,09,1.7,57.2,M,0.0,M,,*44
$GNRMC,144128.000,A,4241.07978,N,00302.05577,E,0.00,214.01,030924,,,A*73
$GNZDA,144128.000,03,09,2024,00,00*4C
$GPTXT,01,01,01,ANTENNA OPEN*25
$GNGGA,144129.000,4241.07979,N,00302.05575,E,1,09,1.7,57.2,M,0.0,M,,*46
$GNRMC,144129.000,A,4241.07979,N,00302.05575,E,0.00,214.01,030924,,,A*71
$GNZDA,144129.000,03,09,2024,00,00*4D
$GPTXT,01,01,01,ANTENNA OPEN*25
$GNGGA,144130.000,4241.07980,N,00302.05574,E,1,09,1.7,57.2,M,0.0,M,,*49
$GNRMC,144130.000,A,4241.07980,N,00302.05574,E,0.00,214.01,030924,,,A*7E
$GNZDA,144130.000,03,09,2024,00,00*45
$GPTXT,01,01,01,ANTENNA OPEN*25
$GNGGA,144131.000,4241.07981,N,00302.05573,E,1,09,1.7,57.2,M,0.0,M,,*4E
$GNRMC,144131.000,A,4241.07981,N,00302.05573,E,0.00,214.01,030924,,,A*79
$GNZDA,144131.000,03,09,2024,00,00*44
$GPTXT,01,01,01,ANTENNA OPEN*25
$GNGGA,144132.000,4241.07982,N,00302.05572,E,1,09,1.7,57.2,M,0.0,M,,*4F
$GNRMC,144132.000,A,4241.07982,N,00302.05572,E,0.00,214.01,030924,,,A*78
$GNZDA,144132.000,03,09,2024,00,00*47
$GPTXT,01,01,01,ANTENNA OPEN*25
$GNGGA,144133.000,4241.07964,N,00302.05604,E,1,09,1.7,57.4,M,0.0,M,,*42
$GNRMC,144133.000,A,4241.07964,N,00302.05604,E,1.09,214.01,030924,,,A*7B
$GNZDA,144133.000,03,09,2024,00,00*46
$GPTXT,01,01,01,ANTENNA OPEN*25
$GNGGA,144134.000,4241.07934,N,00302.05656,E,1,09,1.7,58.4,M,0.0,M,,*48
$GNRMC,144134.000,A,4241.07934,N,00302.05656,E,1.34,214.01,030924,,,A*70
$GNZDA,144134.000,03,09,2024,00,00*41
$GPTXT,01,01,01,ANTENNA OPEN*25
$GNGGA,144135.000,4241.07909,N,00302.05688,E,1,09,1.7,59.2,M,0.0,M,,*43
$GNRMC,144135.000,A,4241.07909,N,00302.05688,E,1.14,214.01,030924,,,A*7E
$GNZDA,144135.000,03,09,2024,00,00*40
$GPTXT,01,01,01,ANTENNA OPEN*25
$GNGGA,144136.000,4241.07909,N,00302.05687,E,1,09,1.7,59.2,M,0.0,M,,*4F
$GNRMC,144136.000,A,4241.07909,N,00302.05687,E,0.00,214.01,030924,,,A*76
$GNZDA,144136.000,03,09,2024,00,00*43
$GPTXT,01,01,01,ANTENNA OPEN*25
$GNGGA,144137.000,4241.07907,N,00302.05691,E,1,09,1.7,59.2,M,0.0,M,,*47
$GNRMC,144137.000,A,4241.07907,N,00302.05691,E,0.00,214.01,030924,,,A*7E
$GNZDA,144137.000,03,09,2024,00,00*42
$GPTXT,01,01,01,ANTENNA OPEN*25
$GNGGA,144138.000,4241.07909,N,00302.05683,E,1,09,1.7,59.1,M,0.0,M,,*46
$GNRMC,144138.000,A,4241.07909,N,00302.05683,E,0.00,214.01,030924,,,A*7C
$GNZDA,144138.000,03,09,2024,00,00*4D
$GPTXT,01,01,01,ANTENNA OPEN*25
$GNGGA,144139.000,4241.07910,N,00302.05683,E,1,09,1.7,59.0,M,0.0,M,,*4E
$GNRMC,144139.000,A,4241.07910,N,00302.05683,E,0.00,214.01,030924,,,A*75
$GNZDA,144139.000,03,09,2024,00,00*4C
$GPTXT,01,01,01,ANTENNA OPEN*25
$GNGGA,144140.000,4241.07907,N,00302.05680,E,1,09,1.7,59.0,M,0.0,M,,*45
$GNRMC,144140.000,A,4241.07907,N,00302.05680,E,0.00,214.01,030924,,,A*7E
$GNZDA,144140.000,03,09,2024,00,00*42
$GPTXT,01,01,01,ANTENNA OPEN*25
$GNGGA,144141.000,4241.07936,N,00302.05715,E,1,09,1.7,58.6,M,0.0,M,,*4C
$GNRMC,144141.000,A,4241.07936,N,00302.05715,E,1.46,214.01,030924,,,A*73
$GNZDA,144141.000,03,09,2024,00,00*43
$GPTXT,01,01,01,ANTENNA OPEN*25
$GNGGA,144142.000,4241.07976,N,00302.05729,E,1,09,1.7,57.7,M,0.0,M,,*4A
$GNRMC,144142.000,A,4241.07976,N,00302.05729,E,1.84,214.01,030924,,,A*75
$GNZDA,144142.000,03,09,2024,00,00*40
$GPTXT,01,01,01,ANTENNA OPEN*25
$GNGGA,144143.000,4241.07975,N,00302.05737,E,1,09,1.7,57.8,M,0.0,M,,*48
$GNRMC,144143.000,A,4241.07975,N,00302.05737,E,0.00,214.01,030924,,,A*75
$GNZDA,144143.000,03,09,2024,00,00*41
$GPTXT,01,01,01,ANTENNA OPEN*25
$GNGGA,144144.000,4241.07978,N,00302.05750,E,1,09,1.7,58.0,M,0.0,M,,*44
$GNRMC,144144.000,A,4241.07978,N,00302.05750,E,0.00,214.01,030924,,,A*7E
$GNZDA,144144.000,03,09,2024,00,00*46
$GPTXT,01,01,01,ANTENNA OPEN*25
$GNGGA,144145.000,4241.07979,N,00302.05769,E,1,09,1.7,58.4,M,0.0,M,,*4A
$GNRMC,144145.000,A,4241.07979,N,00302.05769,E,0.00,214.01,030924,,,A*74
$GNZDA,144145.000,03,09,2024,00,00*47
$GPTXT,01,01,01,ANTENNA OPEN*25
$GNGGA,144146.000,4241.07976,N,00302.05772,E,1,09,1.7,58.4,M,0.0,M,,*4C
$GNRMC,144146.000,A,4241.07976,N,00302.05772,E,0.00,214.01,030924,,,A*72
$GNZDA,144146.000,03,09,2024,00,00*44
$GPTXT,01,01,01,ANTENNA OPEN*25
$GNGGA,144147.000,4241.07976,N,00302.05774,E,1,09,1.7,58.4,M,0.0,M,,*4B
$GNRMC,144147.000,A,4241.07976,N,00302.05774,E,0.00,214.01,030924,,,A*75
$GNZDA,144147.000,03,09,2024,00,00*45
$GPTXT,01,01,01,ANTENNA OPEN*25
$GNGGA,144148.000,4241.07975,N,00302.05775,E,1,09,1.7,58.4,M,0.0,M,,*46
$GNRMC,144148.000,A,4241.07975,N,00302.05775,E,0.00,214.01,030924,,,A*78
$GNZDA,144148.000,03,09,2024,00,00*4A
$GPTXT,01,01,01,ANTENNA OPEN*25
$GNGGA,144149.000,4241.07972,N,00302.05775,E,1,09,1.7,58.4,M,0.0,M,,*40
$GNRMC,144149.000,A,4241.07972,N,00302.05775,E,0.00,214.01,030924,,,A*7E
$GNZDA,144149.000,03,09,2024,00,00*4B
$GPTXT,01,01,01,ANTENNA OPEN*25
$GNGGA,144150.000,4241.07972,N,00302.05778,E,1,09,1.7,58.4,M,0.0,M,,*45
$GNRMC,144150.000,A,4241.07972,N,00302.05778,E,0.00,214.01,030924,,,A*7B
$GNZDA,144150.000,03,09,2024,00,00*43
$GPTXT,01,01,01,ANTENNA OPEN*25
$GNGGA,144151.000,4241.07971,N,00302.05781,E,1,09,1.7,58.4,M,0.0,M,,*41
$GNRMC,144151.000,A,4241.07971,N,00302.05781,E,0.00,214.01,030924,,,A*7F
$GNZDA,144151.000,03,09,2024,00,00*42
$GPTXT,01,01,01,ANTENNA OPEN*25
$GNGGA,144152.000,4241.07932,N,00302.05728,E,1,09,1.7,57.6,M,0.0,M,,*4B
$GNRMC,144152.000,A,4241.07932,N,00302.05728,E,2.05,229.26,030924,,,A*74
$GNZDA,144152.000,03,09,2024,00,00*41
$GPTXT,01,01,01,ANTENNA OPEN*25
$GNGGA,144153.000,4241.07884,N,00302.05681,E,1,09,1.7,57.2,M,0.0,M,,*40
$GNRMC,144153.000,A,4241.07884,N,00302.05681,E,2.49,224.35,030924,,,A*7C
$GNZDA,144153.000,03,09,2024,00,00*40
$GPTXT,01,01,01,ANTENNA OPEN*25
$GNGGA,144154.000,4241.07816,N,00302.05634,E,1,09,1.7,57.3,M,0.0,M,,*43
$GNRMC,144154.000,A,4241.07816,N,00302.05634,E,2.98,219.91,030924,,,A*72
$GNZDA,144154.000,03,09,2024,00,00*47
$GPTXT,01,01,01,ANTENNA OPEN*25
$GNGGA,144155.000,4241.07776,N,00302.05602,E,1,09,1.7,57.4,M,0.0,M,,*49
$GNRMC,144155.000,A,4241.07776,N,00302.05602,E,0.95,219.91,030924,,,A*70
$GNZDA,144155.000,03,09,2024,00,00*46
$GPTXT,01,01,01,ANTENNA OPEN*25
$GNGGA,144156.000,4241.07774,N,00302.05608,E,1,09,1.7,57.5,M,0.0,M,,*43
$GNRMC,144156.000,A,4241.07774,N,00302.05608,E,0.00,219.91,030924,,,A*77
$GNZDA,144156.000,03,09,2024,00,00*45
$GPTXT,01,01,01,ANTENNA OPEN*25
$GNGGA,144157.000,4241.07774,N,00302.05612,E,1,09,1.7,57.6,M,0.0,M,,*4A
$GNRMC,144157.000,A,4241.07774,N,00302.05612,E,0.00,219.91,030924,,,A*7D
$GNZDA,144157.000,03,09,2024,00,00*44
$GPTXT,01,01,01,ANTENNA OPEN*25
$GNGGA,144158.000,4241.07772,N,00302.05614,E,1,09,1.7,57.7,M,0.0,M,,*44
$GNRMC,144158.000,A,4241.07772,N,00302.05614,E,0.00,219.91,030924,,,A*72
$GNZDA,144158.000,03,09,2024,00,00*4B
$GPTXT,01,01,01,ANTENNA OPEN*25
$GNGGA,144159.000,4241.07773,N,00302.05620,E,1,09,1.7,57.5,M,0.0,M,,*41
$GNRMC,144159.000,A,4241.07773,N,00302.05620,E,0.06,219.91,030924,,,A*73
$GNZDA,144159.000,03,09,2024,00,00*4A
$GPTXT,01,01,01,ANTENNA OPEN*25
$GNGGA,144200.000,4241.07784,N,00302.05655,E,1,09,1.7,57.6,M,0.0,M,,*47
$GNRMC,144200.000,A,4241.07784,N,00302.05655,E,1.00,219.91,030924,,,A*71
$GNZDA,144200.000,03,09,2024,00,00*45
$GPTXT,01,01,01,ANTENNA OPEN*25
$GNGGA,144201.000,4241.07791,N,00302.05678,E,1,09,1.7,57.6,M,0.0,M,,*4D
$GNRMC,144201.000,A,4241.07791,N,00302.05678,E,0.56,219.91,030924,,,A*79
$GNZDA,144201.000,03,09,2024,00,00*44
$GPTXT,01,01,01,ANTENNA OPEN*25
$GNGGA,144202.000,4241.07791,N,00302.05677,E,1,09,1.7,57.6,M,0.0,M,,*41
$GNRMC,144202.000,A,4241.07791,N,00302.05677,E,0.00,219.91,030924,,,A*76
$GNZDA,144202.000,03,09,2024,00,00*47
$GPTXT,01,01,01,ANTENNA OPEN*25
$GNGGA,144203.000,4241.07792,N,00302.05675,E,1,09,1.7,57.6,M,0.0,M,,*41
$GNRMC,144203.000,A,4241.07792,N,00302.05675,E,0.00,219.91,030924,,,A*76
$GNZDA,144203.000,03,09,2024,00,00*46
$GPTXT,01,01,01,ANTENNA OPEN*25
$GNGGA,144204.000,4241.07794,N,00302.05675,E,1,09,1.7,57.6,M,0.0,M,,*40
$GNRMC,144204.000,A,4241.07794,N,00302.05675,E,0.00,219.91,030924,,,A*77
$GNZDA,144204.000,03,09,2024,00,00*41
$GPTXT,01,01,01,ANTENNA OPEN*25
$GNGGA,144205.000,4241.07796,N,00302.05676,E,1,09,1.7,57.7,M,0.0,M,,*41
$GNRMC,144205.000,A,4241.07796,N,00302.05676,E,0.00,219.91,030924,,,A*77
$GNZDA,144205.000,03,09,2024,00,00*40
$GPTXT,01,01,01,ANTENNA OPEN*25
$GNGGA,144206.000,4241.07800,N,00302.05676,E,1,09,1.7,57.7,M,0.0,M,,*42
$GNRMC,144206.000,A,4241.07800,N,00302.05676,E,0.00,219.91,030924,,,A*74
$GNZDA,144206.000,03,09,2024,00,00*43
$GPTXT,01,01,01,ANTENNA OPEN*25
$GNGGA,144207.000,4241.07803,N,00302.05680,E,1,09,1.7,57.7,M,0.0,M,,*49
$GNRMC,144207.000,A,4241.07803,N,00302.05680,E,0.00,219.91,030924,,,A*7F
$GNZDA,144207.000,03,09,2024,00,00*42
$GPTXT,01,01,01,ANTENNA OPEN*25
$GNGGA,144208.000,4241.07805,N,00302.05685,E,1,09,1.7,57.8,M,0.0,M,,*4A
$GNRMC,144208.000,A,4241.07805,N,00302.05685,E,0.00,219.91,030924,,,A*73
$GNZDA,144208.000,03,09,2024,00,00*4D
$GPTXT,01,01,01,ANTENNA OPEN*25
$GNGGA,144209.000,4241.07807,N,00302.05687,E,1,09,1.7,57.8,M,0.0,M,,*4B
$GNRMC,144209.000,A,4241.07807,N,00302.05687,E,0.00,219.91,030924,,,A*72
$GNZDA,144209.000,03,09,2024,00,00*4C
$GPTXT,01,01,01,ANTENNA OPEN*25
$GNGGA,144210.000,4241.07808,N,00302.05688,E,1,09,1.7,57.8,M,0.0,M,,*43
$GNRMC,144210.000,A,4241.07808,N,00302.05688,E,0.00,219.91,030924,,,A*7A
$GNZDA,144210.000,03,09,2024,00,00*44
$GPTXT,01,01,01,ANTENNA OPEN*25
$GNGGA,144211.000,4241.07806,N,00302.05689,E,1,09,1.7,57.9,M,0.0,M,,*4C
$GNRMC,144211.000,A,4241.07806,N,00302.05689,E,0.00,219.91,030924,,,A*74
$GNZDA,144211.000,03,09,2024,00,00*45
$GPTXT,01,01,01,ANTENNA OPEN*25
$GNGGA,144212.000,4241.07807,N,00302.05692,E,1,09,1.7,57.9,M,0.0,M,,*44
$GNRMC,144212.000,A,4241.07807,N,00302.05692,E,0.00,219.91,030924,,,A*7C
$GNZDA,144212.000,03,09,2024,00,00*46
$GPTXT,01,01,01,ANTENNA OPEN*25
$GNGGA,144213.000,4241.07806,N,00302.05695,E,1,09,1.7,58.0,M,0.0,M,,*45
$GNRMC,144213.000,A,4241.07806,N,00302.05695,E,0.00,219.91,030924,,,A*7B
$GNZDA,144213.000,03,09,2024,00,00*47
$GPTXT,01,01,01,ANTENNA OPEN*25
$GNGGA,144214.000,4241.07808,N,00302.05695,E,1,09,1.7,58.1,M,0.0,M,,*4D
$GNRMC,144214.000,A,4241.07808,N,00302.05695,E,0.00,219.91,030924,,,A*72
$GNZDA,144214.000,03,09,2024,00,00*40
$GPTXT,01,01,01,ANTENNA OPEN*25
$GNGGA,144215.000,4241.07806,N,00302.05697,E,1,09,1.7,58.1,M,0.0,M,,*40
$GNRMC,144215.000,A,4241.07806,N,00302.05697,E,0.00,219.91,030924,,,A*7F
$GNZDA,144215.000,03,09,2024,00,00*41
$GPTXT,01,01,01,ANTENNA OPEN*25
$GNGGA,144216.000,4241.07806,N,00302.05699,E,1,09,1.7,58.2,M,0.0,M,,*4E
$GNRMC,144216.000,A,4241.07806,N,00302.05699,E,0.00,219.91,030924,,,A*72
$GNZDA,144216.000,03,09,2024,00,00*42
$GPTXT,01,01,01,ANTENNA OPEN*25
$GNGGA,144217.000,4241.07806,N,00302.05701,E,1,09,1.7,58.2,M,0.0,M,,*4F
$GNRMC,144217.000,A,4241.07806,N,00302.05701,E,0.00,219.91,030924,,,A*73
$GNZDA,144217.000,03,09,2024,00,00*43
$GPTXT,01,01,01,ANTENNA OPEN*25
$GNGGA,144218.000,4241.07807,N,00302.05703,E,1,09,1.7,58.3,M,0.0,M,,*42
$GNRMC,144218.000,A,4241.07807,N,00302.05703,E,0.00,219.91,030924,,,A*7F
$GNZDA,144218.000,03,09,2024,00,00*4C
$GPTXT,01,01,01,ANTENNA OPEN*25
$GNGGA,144219.000,4241.07807,N,00302.05705,E,1,09,1.7,58.4,M,0.0,M,,*42
$GNRMC,144219.000,A,4241.07807,N,00302.05705,E,0.00,219.91,030924,,,A*78
$GNZDA,144219.000,03,09,2024,00,00*4D
$GPTXT,01,01,01,ANTENNA OPEN*25
$GNGGA,144220.000,4241.07810,N,00302.05706,E,1,09,1.7,58.4,M,0.0,M,,*4D
$GNRMC,144220.000,A,4241.07810,N,00302.05706,E,0.00,219.91,030924,,,A*77
$GNZDA,144220.000,03,09,2024,00,00*47
$GPTXT,01,01,01,ANTENNA OPEN*25
$GNGGA,144221.000,4241.07811,N,00302.05706,E,1,09,1.7,58.5,M,0.0,M,,*4C
$GNRMC,144221.000,A,4241.07811,N,00302.05706,E,0.00,219.91,030924,,,A*77
$GNZDA,144221.000,03,09,2024,00,00*46
$GPTXT,01,01,01,ANTENNA OPEN*25
$GNGGA,144222.000,4241.07812,N,00302.05706,E,1,09,1.7,58.6,M,0.0,M,,*4F
$GNRMC,144222.000,A,4241.07812,N,00302.05706,E,0.00,219.91,030924,,,A*77
$GNZDA,144222.000,03,09,2024,00,00*45
$GPTXT,01,01,01,ANTENNA OPEN*25
$GNGGA,144223.000,4241.07787,N,00302.05662,E,1,09,1.7,57.8,M,0.0,M,,*4F
$GNRMC,144223.000,A,4241.07787,N,00302.05662,E,1.61,219.91,030924,,,A*70
$GNZDA,144223.000,03,09,2024,00,00*44
$GPTXT,01,01,01,ANTENNA OPEN*25
$GNGGA,144224.000,4241.07763,N,00302.05618,E,1,09,1.7,57.0,M,0.0,M,,*47
$GNRMC,144224.000,A,4241.07763,N,00302.05618,E,1.50,219.91,030924,,,A*72
$GNZDA,144224.000,03,09,2024,00,00*43
$GPTXT,01,01,01,ANTENNA OPEN*25
$GNGGA,144225.000,4241.07739,N,00302.05590,E,1,09,1.7,56.3,M,0.0,M,,*48
$GNRMC,144225.000,A,4241.07739,N,00302.05590,E,1.34,219.91,030924,,,A*7D
$GNZDA,144225.000,03,09,2024,00,00*42
$GPTXT,01,01,01,ANTENNA OPEN*25
$GNGGA,144226.000,4241.07679,N,00302.05597,E,1,09,1.7,55.7,M,0.0,M,,*4E
$GNRMC,144226.000,A,4241.07679,N,00302.05597,E,2.45,169.58,030924,,,A*78
$GNZDA,144226.000,03,09,2024,00,00*41
$GPTXT,01,01,01,ANTENNA OPEN*25
$GNGGA,144227.000,4241.07683,N,00302.05602,E,1,09,1.7,55.9,M,0.0,M,,*4B
$GNRMC,144227.000,A,4241.07683,N,00302.05602,E,0.00,169.58,030924,,,A*70
$GNZDA,144227.000,03,09,2024,00,00*40
$GPTXT,01,01,01,ANTENNA OPEN*25
$GNGGA,144228.000,4241.07686,N,00302.05623,E,1,09,1.7,56.4,M,0.0,M,,*4C
$GNRMC,144228.000,A,4241.07686,N,00302.05623,E,0.00,169.58,030924,,,A*79
$GNZDA,144228.000,03,09,2024,00,00*4F
$GPTXT,01,01,01,ANTENNA OPEN*25
$GNGGA,144229.000,4241.07685,N,00302.05627,E,1,09,1.7,56.6,M,0.0,M,,*48
$GNRMC,144229.000,A,4241.07685,N,00302.05627,E,0.00,169.58,030924,,,A*7F
$GNZDA,144229.000,03,09,2024,00,00*4E
$GPTXT,01,01,01,ANTENNA OPEN*25
$GNGGA,144230.000,4241.07687,N,00302.05630,E,1,09,1.7,56.7,M,0.0,M,,*45
$GNRMC,144230.000,A,4241.07687,N,00302.05630,E,0.00,169.58,030924,,,A*73
$GNZDA,144230.000,03,09,2024,00,00*46
$GPTXT,01,01,01,ANTENNA OPEN*25
$GNGGA,144231.000,4241.07691,N,00302.05630,E,1,09,1.7,56.8,M,0.0,M,,*4C
$GNRMC,144231.000,A,4241.07691,N,00302.05630,E,0.00,169.58,030924,,,A*75
$GNZDA,144231.000,03,09,2024,00,00*47
$GPTXT,01,01,01,ANTENNA OPEN*25
$GNGGA,144232.000,4241.07691,N,00302.05630,E,1,09,1.7,56.8,M,0.0,M,,*4F
$GNRMC,144232.000,A,4241.07691,N,00302.05630,E,0.00,169.58,030924,,,A*76
$GNZDA,144232.000,03,09,2024,00,00*44
$GPTXT,01,01,01,ANTENNA OPEN*25
$GNGGA,144233.000,4241.07685,N,00302.05602,E,1,09,1.7,56.3,M,0.0,M,,*41
$GNRMC,144233.000,A,4241.07685,N,00302.05602,E,0.75,169.58,030924,,,A*71
$GNZDA,144233.000,03,09,2024,00,00*45
$GPTXT,01,01,01,ANTENNA OPEN*25
$GNGGA,144234.000,4241.07673,N,00302.05575,E,1,09,1.7,55.7,M,0.0,M,,*4B
$GNRMC,144234.000,A,4241.07673,N,00302.05575,E,0.82,169.58,030924,,,A*74
$GNZDA,144234.000,03,09,2024,00,00*42
$GPTXT,01,01,01,ANTENNA OPEN*25
$GNGGA,144235.000,4241.07676,N,00302.05580,E,1,09,1.7,55.9,M,0.0,M,,*4B
$GNRMC,144235.000,A,4241.07676,N,00302.05580,E,0.00,169.58,030924,,,A*70
$GNZDA,144235.000,03,09,2024,00,00*43
$GPTXT,01,01,01,ANTENNA OPEN*25
$GNGGA,144236.000,4241.07675,N,00302.05582,E,1,09,1.7,56.1,M,0.0,M,,*42
$GNRMC,144236.000,A,4241.07675,N,00302.05582,E,0.00,169.58,030924,,,A*72
$GNZDA,144236.000,03,09,2024,00,00*40
$GPTXT,01,01,01,ANTENNA OPEN*25
$GNGGA,144237.000,4241.07675,N,00302.05583,E,1,09,1.7,56.2,M,0.0,M,,*41
$GNRMC,144237.000,A,4241.07675,N,00302.05583,E,0.00,169.58,030924,,,A*72
$GNZDA,144237.000,03,09,2024,00,00*41
$GPTXT,01,01,01,ANTENNA OPEN*25
$GNGGA,144238.000,4241.07675,N,00302.05557,E,1,09,1.7,55.5,M,0.0,M,,*43
$GNRMC,144238.000,A,4241.07675,N,00302.05557,E,0.66,169.58,030924,,,A*74
$GNZDA,144238.000,03,09,2024,00,00*4E
$GPTXT,01,01,01,ANTENNA OPEN*25
$GNGGA,144239.000,4241.07660,N,00302.05518,E,1,09,1.7,55.2,M,0.0,M,,*4A
$GNRMC,144239.000,A,4241.07660,N,00302.05518,E,1.15,169.58,030924,,,A*7F
$GNZDA,144239.000,03,09,2024,00,00*4F
$GPTXT,01,01,01,ANTENNA OPEN*25
$GNGGA,144240.000,4241.07655,N,00302.05480,E,1,09,1.7,54.7,M,0.0,M,,*46
$GNRMC,144240.000,A,4241.07655,N,00302.05480,E,0.75,169.58,030924,,,A*70
$GNZDA,144240.000,03,09,2024,00,00*41
$GPTXT,01,01,01,ANTENNA OPEN*25
$GNGGA,144241.000,4241.07665,N,00302.05443,E,1,09,1.7,54.2,M,0.0,M,,*4E
$GNRMC,144241.000,A,4241.07665,N,00302.05443,E,0.87,169.58,030924,,,A*70
$GNZDA,144241.000,03,09,2024,00,00*40
$GPTXT,01,01,01,ANTENNA OPEN*25
$GNGGA,144242.000,4241.07645,N,00302.05403,E,1,09,1.7,53.3,M,0.0,M,,*4D
$GNRMC,144242.000,A,4241.07645,N,00302.05403,E,0.77,169.58,030924,,,A*7A
$GNZDA,144242.000,03,09,2024,00,00*43
$GPTXT,01,01,01,ANTENNA OPEN*25
$GNGGA,144243.000,4241.07651,N,00302.05401,E,1,09,1.7,53.6,M,0.0,M,,*4E
$GNRMC,144243.000,A,4241.07651,N,00302.05401,E,0.30,169.58,030924,,,A*7F
$GNZDA,144243.000,03,09,2024,00,00*42
$GPTXT,01,01,01,ANTENNA OPEN*25
$GNGGA,144244.000,4241.07632,N,00302.05373,E,1,09,1.7,52.8,M,0.0,M,,*41
$GNRMC,144244.000,A,4241.07632,N,00302.05373,E,0.43,169.58,030924,,,A*7B
$GNZDA,144244.000,03,09,2024,00,00*45
$GPTXT,01,01,01,ANTENNA OPEN*25
$GNGGA,144245.000,4241.07633,N,00302.05377,E,1,09,1.7,52.7,M,0.0,M,,*4A
$GNRMC,144245.000,A,4241.07633,N,00302.05377,E,0.61,169.58,030924,,,A*7F
$GNZDA,144245.000,03,09,2024,00,00*44
$GPTXT,01,01,01,ANTENNA OPEN*25
$GNGGA,144246.000,4241.07613,N,00302.05409,E,1,09,1.7,52.6,M,0.0,M,,*44
$GNRMC,144246.000,A,4241.07613,N,00302.05409,E,1.71,169.58,030924,,,A*70
$GNZDA,144246.000,03,09,2024,00,00*47
$GPTXT,01,01,01,ANTENNA OPEN*25
$GNGGA,144247.000,4241.07611,N,00302.05469,E,1,09,1.7,53.5,M,0.0,M,,*43
$GNRMC,144247.000,A,4241.07611,N,00302.05469,E,1.74,169.58,030924,,,A*70
$GNZDA,144247.000,03,09,2024,00,00*46
$GPTXT,01,01,01,ANTENNA OPEN*25
$GNGGA,144248.000,4241.07621,N,00302.05512,E,1,09,1.7,54.3,M,0.0,M,,*43
$GNRMC,144248.000,A,4241.07621,N,00302.05512,E,1.08,169.58,030924,,,A*7A
$GNZDA,144248.000,03,09,2024,00,00*49
$GPTXT,01,01,01,ANTENNA OPEN*25
$GNGGA,144249.000,4241.07658,N,00302.05540,E,1,09,1.7,54.7,M,0.0,M,,*4F
$GNRMC,144249.000,A,4241.07658,N,00302.05540,E,1.13,169.58,030924,,,A*78
$GNZDA,144249.000,03,09,2024,00,00*48
$GPTXT,01,01,01,ANTENNA OPEN*25
$GNGGA,144250.000,4241.07711,N,00302.05571,E,1,09,1.7,55.3,M,0.0,M,,*4C
$GNRMC,144250.000,A,4241.07711,N,00302.05571,E,1.97,32.45,030924,,,A*41
$GNZDA,144250.000,03,09,2024,00,00*40
$GPTXT,01,01,01,ANTENNA OPEN*25
$GNGGA,144251.000,4241.07753,N,00302.05606,E,1,09,1.7,55.8,M,0.0,M,,*43
$GNRMC,144251.000,A,4241.07753,N,00302.05606,E,1.95,29.25,030924,,,A*4B
$GNZDA,144251.000,03,09,2024,00,00*41
$GPTXT,01,01,01,ANTENNA OPEN*25
$GNGGA,144252.000,4241.07789,N,00302.05624,E,1,09,1.7,56.6,M,0.0,M,,*4A
$GNRMC,144252.000,A,4241.07789,N,00302.05624,E,1.42,29.25,030924,,,A*45
$GNZDA,144252.000,03,09,2024,00,00*42
$GPTXT,01,01,01,ANTENNA OPEN*25
$GNGGA,144253.000,4241.07825,N,00302.05621,E,1,09,1.7,56.9,M,0.0,M,,*48
$GNRMC,144253.000,A,4241.07825,N,00302.05621,E,1.58,29.25,030924,,,A*43
$GNZDA,144253.000,03,09,2024,00,00*43
$GPTXT,01,01,01,ANTENNA OPEN*25
$GNGGA,144254.000,4241.07846,N,00302.05614,E,1,09,1.7,57.3,M,0.0,M,,*47
$GNRMC,144254.000,A,4241.07846,N,00302.05614,E,0.71,29.25,030924,,,A*4D
$GNZDA,144254.000,03,09,2024,00,00*44
$GPTXT,01,01,01,ANTENNA OPEN*25
$GNGGA,144255.000,4241.07864,N,00302.05602,E,1,09,1.7,57.9,M,0.0,M,,*4B
$GNRMC,144255.000,A,4241.07864,N,00302.05602,E,0.78,29.25,030924,,,A*42
$GNZDA,144255.000,03,09,2024,00,00*45
$GPTXT,01,01,01,ANTENNA OPEN*25
$GNGGA,144256.000,4241.07870,N,00302.05599,E,1,09,1.7,58.7,M,0.0,M,,*4D
$GNRMC,144256.000,A,4241.07870,N,00302.05599,E,0.26,29.25,030924,,,A*4E
$GNZDA,144256.000,03,09,2024,00,00*46
$GPTXT,01,01,01,ANTENNA OPEN*25
$GNGGA,144257.000,4241.07881,N,00302.05583,E,1,09,1.7,59.2,M,0.0,M,,*4D
$GNRMC,144257.000,A,4241.07881,N,00302.05583,E,0.85,29.25,030924,,,A*43
$GNZDA,144257.000,03,09,2024,00,00*47
$GPTXT,01,01,01,ANTENNA OPEN*25
$GNGGA,144258.000,4241.07894,N,00302.05584,E,1,09,1.7,59.9,M,0.0,M,,*4A
$GNRMC,144258.000,A,4241.07894,N,00302.05584,E,0.40,29.25,030924,,,A*46
$GNZDA,144258.000,03,09,2024,00,00*48
$GPTXT,01,01,01,ANTENNA OPEN*25
$GNGGA,144259.000,4241.07902,N,00302.05588,E,1,09,1.7,60.8,M,0.0,M,,*42
$GNRMC,144259.000,A,4241.07902,N,00302.05588,E,0.41,29.25,030924,,,A*44
$GNZDA,144259.000,03,09,2024,00,00*49
$GPTXT,01,01,01,ANTENNA OPEN*25
$GNGGA,144300.000,4241.07924,N,00302.05585,E,1,09,1.7,61.3,M,0.0,M,,*4C
$GNRMC,144300.000,A,4241.07924,N,00302.05585,E,0.86,29.25,030924,,,A*4B
$GNZDA,144300.000,03,09,2024,00,00*44
$GPTXT,01,01,01,ANTENNA OPEN*25
$GNGGA,144301.000,4241.07954,N,00302.05578,E,1,09,1.7,61.5,M,0.0,M,,*4E
$GNRMC,144301.000,A,4241.07954,N,00302.05578,E,1.43,29.25,030924,,,A*47
